stop_id,stop_code,stop_name,stop_desc,stop_lat,stop_lon,zone_id,stop_url,location_type,wheelchair_boarding,parent_station,platform_code
B00002P,,ABA,,-6.194149,106.83939,1,,0,2,,
B00003P,,Acacia Residence,,-6.263358,106.75675,1,,0,2,,
B00004P,,ACC Simatupang,,-6.304475,106.84858,1,,0,2,,
B00005P,,ACE Hardware,,-6.387532,106.82738,1,,0,2,,
B00006P,,ACE Hardware Kelapa Gading,,-6.157009,106.89905,1,,0,2,,
B00013P,,Ahmad Yani Pisangan Baru,,-6.211477,106.87374,1,,0,2,,
B00029P,,Al Mahbubiyah,,-6.291866,106.81255,1,,0,2,,
B00031P,,Al Wathoniyah 1,,-6.192036,106.9353,1,,0,2,,
B00032P,,Al Wathoniyah 2,,-6.192425,106.93568,1,,0,2,,
B00036P,,Ampera 2,,-6.292641,106.81563,1,,0,2,,
B00037P,,Ampera 3,,-6.291196,106.81706,1,,0,2,,
B00038P,,Ampera 4,,-6.291345,106.8172,1,,0,2,,
B00039P,,Ampera Garden,,-6.288794,106.81818,1,,0,2,,
B00041P,,Ananda Pulo Gadung,,-6.185254,106.90716,1,,0,2,,
B00048P,,Aneka PIK Penggilingan,,-6.202636,106.92867,1,,0,2,,
B00053P,,Antena II,,-6.25033,106.79163,1,,0,2,,
B05801P,,Transmart MH Thamrin 2,,-6.207705,106.628074,1,,0,2,,
B00058P,,Apartemen Simprug Teras,,-6.232197,106.78874,1,,0,2,,
B00062P,,Aries Utama,,-6.197385,106.75145,1,,0,2,,
B00063P,,Aries Utama III,,-6.197454,106.74602,1,,0,2,,
B00064P,,Ariobimo Sentral,,-6.227471,106.83328,1,,0,2,,
B00065P,,Arion Mall,,-6.193631,106.89068,1,,0,2,,
B00066P,,Arsip Nasional RI 1,,-6.279439,106.81987,1,,0,2,,
B00067P,,Arsip Nasional RI 2,,-6.279481,106.81995,1,,0,2,,
B00072P,,Asrama Haji Pondok Gede,,-6.290541,106.88827,1,,0,2,,
B00075P,,Asrama Polri Cideng,,-6.178925,106.81262,1,,0,2,,
B00078P,,Astek,,-6.291175,106.66598,1,,0,2,,
B00079P,,Aston Pluit 1,,-6.124693,106.79511,1,,0,2,,
B00080P,,Aston Pluit 2,,-6.124268,106.79419,1,,0,2,,
B00081P,,At Thahiriah 1,,-6.210032,106.93803,1,,0,2,,
B00082P,,At Thahiriah 2,,-6.210011,106.93809,1,,0,2,,
B00084P,,Atrium 2,,-6.17687,106.84042,1,,0,2,,
B00087P,,Auto 2000,,-6.25922,106.78922,1,,0,2,,
B00088P,,Awab Dalam,,-6.224877,106.8696,1,,0,2,,
B00092P,,Bacang Lubang Buaya,,-6.288956,106.89696,1,,0,2,,
B00093P,,Badan Diklat Kejaksaan RI,,-6.304295,106.82095,1,,0,2,,
B00025P,,Al Barkah,,-6.219597,106.84565,1,,0,2,,
B07340P,,Skybridge Summarecon Serpong,,-6.240672,106.62945,1,,0,2,,
B00098P,,Baileys Lagoon City,,-6.315461,106.74677,1,,0,2,,
B00100P,,Baladewa Residence,,-6.229648,106.91038,1,,0,2,,
B00101P,,Balai Kartini,,-6.234791,106.82457,1,,0,2,,
B00102P,,Balai Kota 1,,-6.180598,106.82847,1,,0,1,,
B00104P,,Balai Pertamina,,-6.229555,106.79052,1,,0,2,,
B00105P,,Balai Sudirman,,-6.227043,106.84742,1,,0,2,,
B00108P,,Bandar Djakarta Bekasi,,-6.227085,106.99683,1,,0,2,,
B00109P,,Bangau VI,,-6.169278,106.84271,1,,0,2,,
B00113P,,Bank Indonesia 2,,-6.182667,106.82275,1,,0,2,,
B00114P,,UPT. LLHD 1,,-6.22577,106.83507,1,,0,2,,
B00115P,,UPT. LLHD 2,,-6.225501,106.83489,1,,0,2,,
B00116P,,Bapindo Menteng,,-6.187095,106.83566,1,,0,2,,
B00117P,,Batalyon Kavaleri 1,,-6.252806,106.65064,1,,0,2,,
B00118P,,Batalyon Kavaleri 2,,-6.252704,106.65081,1,,0,2,,
B00120P,,Baung,,-6.302036,106.83656,1,,0,2,,
B00121P,,Baywalk 1,,-6.109908,106.77828,1,,0,2,,
B00122P,,Baywalk 2,,-6.110359,106.77961,1,,0,2,,
B00125P,,Benhil 1,,-6.217304,106.8154,1,,0,2,,
B00126P,,Benhil 2,,-6.216775,106.8154,1,,0,2,,
B00128P,,Benteng Betawi,,-6.174158,106.65559,1,,0,2,,
B00132P,,Beverly Tower,,-6.291805,106.78636,1,,0,2,,
B00133P,,Bhayangkara 1,,-6.236949,106.64549,1,,0,2,,
B00134P,,Bhayangkara 2,,-6.236714,106.64559,1,,0,2,,
B00136P,,Bidara 1,,-6.106097,106.9595,1,,0,2,,
B00137P,,Bidara 2,,-6.106075,106.95942,1,,0,2,,
B00140P,,Billy Moon,,-6.248271,106.93093,1,,0,2,,
B00141P,,Billy Moon 2,,-6.248131,106.92944,1,,0,2,,
B00144P,,Bintaro,,-6.271245,106.75133,1,,0,2,,
B00145P,,Bintaro Gg. Masjid,,-6.27026,106.75217,1,,0,2,,
B00146P,,Bintaro Kodam,,-6.260196,106.76594,1,,0,2,,
B00148P,,Bintaro Xchange,,-6.286813,106.72865,1,,0,2,,
B00154P,,BKN 1,,-6.258026,106.86955,1,,0,2,,
B00155P,,BKN 2,,-6.258262,106.86984,1,,0,2,,
B00156P,,Blok A,,-6.188462,106.81558,1,,0,2,,
B00158P,,Blok E,,-6.18497,106.81463,1,,0,2,,
B00159P,,Blok F,,-6.188552,106.81249,1,,0,2,,
B00163P,,BNI Syariah,,-6.227256,106.83291,1,,0,2,,
B00166P,,Boulevard Bukit Gading Raya,,-6.15515,106.89579,1,,0,2,,
B00168P,,Boulevard Inspeksi Kali Sunter,,-6.151094,106.88901,1,,0,2,,
B00174P,,Boulevard Pelepah Raya,,-6.159256,106.90317,1,,0,2,,
B00178P,,BPJS Kesehatan Sultan Hasanudin,,-6.242517,106.80229,1,,0,2,,
B00183P,,BRI Jakarta Kota,,-6.135104,106.80752,1,,0,2,,
B00129P,,Bercabuana Sakti,,-6.270086,106.76549,1,,0,2,,
B00184P,,BRI Menteng,,-6.186792,106.83514,1,,0,2,,
B00185P,,Brimob Pejaten Barat 2,,-6.270925,106.84644,1,,0,2,,
B00188P,,BSD Plaza 1,,-6.278263,106.66103,1,,0,2,,
B00189P,,BSD Plaza 2,,-6.280847,106.66305,1,,0,2,,
B00190P,,BSI 1,,-6.237724,106.76225,1,,0,2,,
B00191P,,BSI 2,,-6.237609,106.76252,1,,0,2,,
B00192P,,BSI Cengkareng,,-6.147973,106.72781,1,,0,2,,
B00138P,,Bidara Cina 1,,-6.22996,106.867336,1,,0,2,,
B00195P,,Buaran Plaza,,-6.217983,106.9235,1,,0,2,,
B00197P,,Buddha Tzu Chi,,-6.107998,106.73942,1,,0,2,,
B00198P,,Budhaya Santo Agustinus,,-6.220866,106.92346,1,,0,2,,
B00201P,,Budiwarman 1,,-6.279071,106.87019,1,,0,2,,
B00205P,,Bukit Duri,,-6.21551,106.86293,1,,0,2,,
B00206P,,Bulak Rantai,,-6.284664,106.87123,1,,0,2,,
B00209P,,Bulog,,-6.237665,106.82917,1,,0,2,,
B00211P,,Bumi Jatiwaringin,,-6.275283,106.91282,1,,0,2,,
B00213P,,Bumi Perkemahan Ragunan,,-6.295825,106.82153,1,,0,2,,
B00214P,,Bumiputera,,-6.206839,106.82234,1,,0,2,,
B00216P,,Bundaran Alam Sutera 1,,-6.244107,106.64889,1,,0,2,,
B00217P,,Bundaran Alam Sutera 2,,-6.243905,106.64901,1,,0,2,,
B00219P,,Bundaran Harapan Indah,,-6.183719,106.97727,1,,0,2,,
B00221P,,Bundaran Senayan 1,,-6.227445,106.80187,1,,0,2,,
B00222P,,Bundaran Senayan 2,,-6.227877,106.80068,1,,0,2,,
B00227P,,Carrefour Buaran,,-6.218653,106.9237,1,,0,2,,
B00229P,,Carrefour Lebak Bulus,,-6.287529,106.7768,1,,0,2,,
B00230P,,Carrefour Meruya Ilir,,-6.197521,106.75129,1,,0,2,,
B00232P,,Pool Taksi Cawang,,-6.248836,106.87801,1,,0,2,,
B00234P,,Cawang Soetoyo 1,,-6.24544,106.87548,1,,0,2,,
B00235P,,Cawang Soetoyo 2,,-6.245259,106.876,1,,0,2,,
B00238P,,Cempaka,,-6.277541,106.76223,1,,0,2,,
B00240P,,Cempaka Timur 2,,-6.166318,106.87617,1,,0,2,,
B00241P,,Centennial Tower,,-6.230377,106.82026,1,,0,2,,
B00242P,,Centro Metro Broadway,,-6.116362,106.76143,1,,0,2,,
B00243P,,Cervino Village,,-6.224355,106.85165,1,,0,2,,
B00244P,,Chase Plaza,,-6.210571,106.82129,1,,0,2,,
B00245P,,Child Care Pre School,,-6.257557,106.8009,1,,0,2,,
B00248P,,Cibubur Junction,,-6.368735,106.89366,1,,0,2,,
B00249P,,Cideng Timur,,-6.166537,106.81073,1,,0,2,,
B00250P,,Cikajang Wolter Monginsidi,,-6.239122,106.81084,1,,0,2,,
B00251P,,Cilandak,,-6.29195,106.81519,1,,0,2,,
B00253P,,Cilandak Town Square,,-6.291993,106.799835,1,,0,2,,
B00257P,,Cililitan Kecil,,-6.261889,106.86423,1,,0,2,,
B05650P,,Taman Royal,,-6.173369,106.66059,1,,0,2,,
B00263P,,Cipinang Indah,,-6.22943,106.89116,1,,0,2,,
B00264P,,Cipinang Kb. Nanas 1,,-6.231595,106.87615,1,,0,2,,
B00265P,,Cipinang Kb. Nanas 2,,-6.231453,106.87647,1,,0,2,,
B00268P,,Cipinang Melayu Kalimalang,,-6.240168,106.88473,1,,0,2,,
B00269P,,Cipinang Melayu Kalimalang 2,,-6.24004,106.8828,1,,0,2,,
B00270P,,Cipinang Melayu Kalimalang 3,,-6.240143,106.88077,1,,0,2,,
B00274P,,Cipta Rasuna Said,,-6.216146,106.83087,1,,0,2,,
B00275P,,Cipulir 1,,-6.237918,106.7749,1,,0,2,,
B00276P,,Cirendeu Permai,,-6.289561,106.76894,1,,0,2,,
B00278P,,City Walk Sudirman,,-6.209468,106.81783,1,,0,2,,
B00284P,,Curug Kalimalang,,-6.24774,106.92454,1,,0,2,,
B00285P,,Cut Meutia,,-6.187542,106.83294,1,,0,2,,
B00203P,,Bukit Cinere Indah,,-6.340012,106.77991,1,,0,2,,
B00226P,,Buperta Cibubur,,-6.369608,106.896189,1,,0,2,,
B00254P,,Sbr. PGC,,-6.263494,106.865419,1,,0,2,,
B00286P,,Cyberpark Karawaci,,-6.222465,106.61844,1,,0,2,,
B00287P,,D Mall,,-6.387291,106.8273,1,,0,2,,
B00290P,,Dammara,,-6.25419,106.83146,1,,0,2,,
B00291P,,Dana Reksa,,-6.181365,106.82451,1,,0,2,,
B00292P,,Danau Agung 1,,-6.147281,106.8582,1,,0,2,,
B00293P,,Danau Tmp Kalibata,,-6.255698,106.84944,1,,0,2,,
B00295P,,Dapsus 1,,-6.301135,106.79484,1,,0,2,,
B00296P,,Dapsus 2,,-6.301728,106.79463,1,,0,2,,
B00304P,,Dewan Pers,,-6.182996,106.82709,1,,0,2,,
B00306P,,Dinas Kebersihan Duren Sawit,,-6.219815,106.92338,1,,0,2,,
B00308P,,Dinas Olahraga Dan Pemuda,,-6.219715,106.86802,1,,0,2,,
B00312P,,Direktorat Jenderal Hortikultura,,-6.285538,106.8393,1,,0,2,,
B00313P,,Direktorat Jenderal Pajak,,-6.224628,106.81558,1,,0,2,,
B00317P,,Dittopad,,-6.174759,106.84823,1,,0,2,,
B00318P,,Dittopad 2,,-6.174618,106.85009,1,,0,2,,
B00321P,,DPR MPR 1,,-6.208517,106.80379,1,,0,2,,
B00322P,,DPR MPR 2,,-6.206314,106.80194,1,,0,2,,
B00324P,,Dukuh 5,,-6.289913,106.87753,1,,0,2,,
B00326P,,Dukuh Atas 4,,-6.204819,106.8221,1,,0,2,,
B00328P,,Duren Sawit,,-6.233341,106.91006,1,,0,2,,
B00329P,,Duren Tiga 1,,-6.252132,106.82702,1,,0,2,,
B00332P,,Dwijaya,,-6.262287,106.78855,1,,0,2,,
B00335P,,Embun Pagi Islamic Elementary School,,-6.248768,106.92911,1,,0,2,,
B00336P,,Embun Pagi Islamic School,,-6.247711,106.91892,1,,0,2,,
B00340P,,Epiwalk Epicentrum,,-6.217666,106.83547,1,,0,2,,
B00342P,,Essence Dharmawangsa,,-6.257365,106.80495,1,,0,2,,
B00346P,,Farmasi RP Soeroso,,-6.187939,106.83608,1,,0,2,,
B00347P,,Fatmawati 1,,-6.292571,106.79743,1,,0,2,,
B00348P,,Fatmawati 2,,-6.291994,106.79606,1,,0,2,,
B00349P,,Flyover Bintaro,,-6.25748,106.76478,1,,0,2,,
B00359P,,Flyover Karet,,-6.215434,106.81867,1,,0,2,,
B00360P,,Flyover Karet 2,,-6.214808,106.81847,1,,0,2,,
B00363P,,Flyover Ps. Klender 1,,-6.211058,106.90153,1,,0,2,,
B00364P,,Flyover Ps. Klender 2,,-6.211371,106.90103,1,,0,2,,
B00368P,,Flyover Radin Inten 1,,-6.216112,106.92439,1,,0,2,,
B00323P,,DPRD DKI Jakarta,,-6.182886,106.82851,1,,0,2,,
B00337P,,Empang 3,,-6.263342,106.84318,1,,0,2,,
B00369P,,Flyover Radin Inten 2,,-6.215843,106.92408,1,,0,2,,
B00372P,,Flyover Setiabudi,,-6.202064,106.8281,1,,0,2,,
B00374P,,Flyover Tj. Barat,,-6.303059,106.83998,1,,0,2,,
B00339P,,Enggano 2,,-6.110031,106.89246,1,,0,2,,
B00338P,,Enggano 1,,-6.110213,106.89246,1,,0,2,,
B00377P,,Fresh Market PIK,,-6.104023,106.741074,1,,0,2,,
B00379P,,Gading Griya Lestari,,-6.141405,106.92188,1,,0,2,,
B00383P,,Gading Serpong 1,,-6.230729,106.64138,1,,0,2,,
B00384P,,Gading Serpong 2,,-6.230464,106.64147,1,,0,2,,
B00385P,,Galeri Nasional,,-6.178553,106.83182,1,,0,2,,
B00386P,,Galeri Niaga Mediterania 1,,-6.116646,106.77135,1,,0,2,,
B00388P,,Galur 2,,-6.174192,106.855,1,,0,2,,
B00389P,,Gama Tower,,-6.22414,106.83303,1,,0,2,,
B00391P,,Gandaria City,,-6.243912,106.7824,1,,0,2,,
B00395P,,Gg. Aim 1,,-6.200344,106.9351,1,,0,2,,
B00396P,,Gg. Aim 2,,-6.200395,106.93515,1,,0,2,,
B00400P,,Gg. Ali,,-6.307683,106.87636,1,,0,2,,
B00410P,,Gg. Ayama,,-6.27204,106.8671,1,,0,2,,
B00420P,,Gg. Beringin,,-6.384603,106.8292,1,,0,2,,
B00425P,,Gg. Borobudur Ragunan,,-6.306803,106.81679,1,,0,2,,
B00430P,,Gg. Cemara Cilandak KKO,,-6.299412,106.81475,1,,0,2,,
H00189P,,Puri Beta 1,,-6.230596,106.72602,1,,1,2,,
B00390P,,Gambir 3,,-6.178796,106.83095,1,,0,2,,
B00454P,,Gg. H. Abdul Wahab,,-6.254501,106.82622,1,,0,2,,
B00459P,,Gg. H. Ayub,,-6.270874,106.79762,1,,0,2,,
B00481P,,Gg. H. Solihin 1 Tebet,,-6.22337,106.84837,1,,0,2,,
B00486P,,Gg. Harapan I Jagakarsa,,-6.313476,106.81269,1,,0,2,,
B00491P,,Gg. Kancil I Lenteng Agung,,-6.316507,106.83774,1,,0,2,,
B00494P,,Gg. Kelor,,-6.211791,106.86043,1,,0,2,,
B00495P,,Gg. Kelor 2,,-6.211486,106.86066,1,,0,2,,
B00501P,,Gg. L Utan Panjang Timur,,-6.166888,106.85256,1,,0,2,,
B00503P,,Gg. Langgar II,,-6.255477,106.79037,1,,0,2,,
G00001,,Makasar,,-6.290173,106.881172,1,,0,0,H00060P,A-B-C
B00512P,,Gg. Marang,,-6.217246,106.74855,1,,0,2,,
B00517P,,Gg. Molen,,-6.30713,106.87629,1,,0,2,,
G00002,,Makasar,,-6.290144,106.88119,1,,0,0,H00060P,D-E-F
B00522P,,Gg. Musholla Ragunan,,-6.308196,106.81588,1,,0,2,,
B00538P,,Gg. Randu,,-6.221883,106.89946,1,,0,2,,
B00542P,,Gg. Robaya,,-6.333288,106.82819,1,,0,2,,
B00551P,,Gg. Saminten,,-6.379436,106.84923,1,,0,2,,
B00552P,,Gg. Samudera Casa Goya,,-6.198942,106.77778,1,,0,2,,
B00554P,,Gg. Sawo 1,,-6.20176,106.93513,1,,0,2,,
B00556P,,Gg. Sawo Joglo,,-6.217751,106.75034,1,,0,2,,
B00568P,,Gg. Tamansari Ragunan,,-6.305488,106.81614,1,,0,2,,
B00584P,,Gas Alam,,-6.382128,106.86633,1,,0,2,,
B00586P,,Gatot Subroto LIPI 1,,-6.226962,106.81723,1,,0,1,,
B00587P,,Gatot Subroto LIPI 2,,-6.226792,106.81771,1,,0,1,,
B00591P,,Gebu Minang,,-6.225359,106.85576,1,,0,2,,
B00592P,,Gedong Panjang 2,,-6.132546,106.80606,1,,0,2,,
B00596P,,Gedung Granadi,,-6.231311,106.83301,1,,0,2,,
B03565P,,Sbr. Gg. Sawo Joglo,,-6.217713,106.74968,1,,0,2,,
B00598P,,Gedung OT,,-6.166688,106.72772,1,,0,2,,
B00599P,,Gedung Pertamina,,-6.230483,106.78971,1,,0,2,,
B00603P,,Gedung Senam,,-6.224141,106.92339,1,,0,2,,
B00604P,,Gedung Wanita,,-6.200921,106.83624,1,,0,2,,
B00608P,,Gelanggang Remaja Pasar Minggu,,-6.284615,106.83787,1,,0,2,,
B00610P,,Gelanggang TB Simatupang,,-6.289097,106.77909,1,,0,2,,
B00612P,,Gelora Bung Karno 2,,-6.224126,106.80558,1,,0,2,,
B00613P,,Gempol,,-6.30729,106.89415,1,,0,2,,
B00614P,,Gempol Baru 1,,-6.186429,106.95439,1,,0,2,,
B00615P,,Gempol Baru 2,,-6.186351,106.9547,1,,0,2,,
B00617P,,Gerbang Tol Joglo 1,,-6.218914,106.74426,1,,0,2,,
B00618P,,Gerbang Tol Joglo 2,,-6.218702,106.74425,1,,0,2,,
B00622P,,Gerbang Tol Pondok Gede,,-6.258346,106.91008,1,,0,2,,
B00623P,,Gerbang Tol Tj. Duren,,-6.173231,106.79049,1,,0,2,,
B00624P,,Gerbang Tol Veteran,,-6.261369,106.76721,1,,0,2,,
B00611P,,Gelora Bung Karno 1,,-6.224642,106.8056,1,,0,2,,
B03247P,,Ruko Meruya Ilir,,-6.197437,106.75067,1,,0,2,,
B00636P,,Gereja Santa Anna 1,,-6.233953,106.90998,1,,0,2,,
B00637P,,Gereja Santa Anna 2,,-6.234003,106.91014,1,,0,2,,
B00645P,,Giant Pondok Gede 1,,-6.278286,106.91327,1,,0,2,,
B00646P,,Giant Pondok Gede 2,,-6.277896,106.91309,1,,0,2,,
B00651P,,Goethe Institute,,-6.189522,106.83138,1,,0,2,,
B00652P,,Gojek Kemang Timur,,-6.272963,106.82142,1,,0,2,,
B00654P,,Golden Fatmawati,,-6.276685,106.79761,1,,0,2,,
B00665P,,GP Mall 1,,-6.259636,107.01988,1,,0,2,,
B00666P,,GP Mall 2,,-6.259474,107.01987,1,,0,2,,
B00667P,,GPIB Bukit Moria,,-6.241727,106.84454,1,,0,2,,
B00673P,,Graha Kemenpora,,-6.214153,106.79891,1,,0,2,,
B00675P,,Graha Mandiri,,-6.197443,106.82533,1,,0,2,,
B00679P,,Graha Pejaten,,-6.277337,106.84187,1,,0,2,,
B00682P,,Graha Sindu Bpk Penabur,,-6.159971,106.83509,1,,0,2,,
B00684P,,Graha Werdatama Pondok Labu,,-6.309163,106.79461,1,,0,2,,
B00685P,,Gramedia Harapan Indah,,-6.17631,106.97427,1,,0,2,,
B00687P,,Grand Cempaka Hotel,,-6.173334,106.86075,1,,0,2,,
B00688P,,Grand Centro Bintaro,,-6.258839,106.75968,1,,0,2,,
B00689P,,Grand Dhika City,,-6.262149,107.018435,1,,0,2,,
B00693P,,Grand Pasar Minggu,,-6.290648,106.84236,1,,0,2,,
B00694P,,Grand Sahid,,-6.210975,106.82059,1,,0,2,,
B00695P,,Grand Wijaya Dharmawangsa,,-6.254752,106.80034,1,,0,2,,
B00698P,,Green Permata,,-6.229061,106.76065,1,,0,2,,
B00700P,,Green Terrace,,-6.303484,106.88539,1,,0,2,,
B00701P,,Green Terrace 2,,-6.30478,106.88724,1,,0,2,,
B00713P,,Griya Kukila Halim Perdanakusuma,,-6.28456,106.90678,1,,0,2,,
B00715P,,Groserindo,,-6.249011,107.01686,1,,0,2,,
H00091P,,JORR,,-6.236104,106.75488,1,,1,2,,
B00717P,,Gubah Al Haddad,,-6.107712,106.89961,1,,0,2,,
B00718P,,Gunawarman 1,,-6.237947,106.80724,1,,0,2,,
B00683P,,Graha Sucofindo,,-6.251886,106.84248,1,,0,2,,
B00719P,,Gunawarman 2,,-6.234276,106.80756,1,,0,2,,
B05154P,,Simpang Srengseng Meruya Ilir 1,,-6.197437,106.75633,1,,0,2,,
B00726P,,H. Alwi,,-6.309595,106.8389,1,,0,2,,
B00727P,,H. Moh Nail,,-6.379503,106.85084,1,,0,2,,
B00728P,,H. Naman Noer Ali,,-6.248932,106.94208,1,,0,2,,
B00729P,,H. Nawi Jln. Madrasah,,-6.268026,106.79712,1,,0,2,,
B00730P,,H. Nawi Jln. Timbul,,-6.268439,106.79744,1,,0,2,,
B00664P,,GOR Sumantri 2,,-6.221038,106.83189,1,,0,2,,
B00732P,,Halim PK,,-6.241981,106.87792,1,,0,2,,
B00733P,,Halimun 1,,-6.205233,106.8335,1,,0,2,,
B00762P,,Harapan Indah Boulevard,,-6.186073,106.97502,1,,0,2,,
B00767P,,Hero Basuki Rahmat,,-6.22764,106.88296,1,,0,2,,
B00770P,,Honda Letjen Suprapto,,-6.174933,106.84973,1,,0,2,,
B00772P,,Hotel Ambhara Blok M,,-6.243499,106.80318,1,,0,2,,
B00774P,,Hotel Borobudur 2,,-6.159653,106.83912,1,,0,2,,
B00778P,,Hotel Melawai,,-6.245857,106.79979,1,,0,2,,
B00780P,,Hotel Mulia,,-6.213782,106.79602,1,,0,2,,
B00781P,,Hotel Olive 1,,-6.217195,106.61882,1,,0,2,,
B00782P,,Hotel Olive 2,,-6.216591,106.61888,1,,0,2,,
B00785P,,IBI-K 57,,-6.334036,106.833,1,,0,2,,
B03409P,,SDN Pesanggrahan 10 Pagi,,-6.259198,106.75694,1,,0,2,,
B00795P,,Imperium,,-6.210363,106.83059,1,,0,2,,
B00799P,,Infinia Park,,-6.212589,106.84562,1,,0,2,,
B01179P,,Jln. Jeruk Joglo Barat,,-6.218007,106.7572,1,,0,2,,
B00805P,,Ir H Djuanda,,-6.381864,106.86551,1,,0,2,,
B00807P,,Iskandar Muda,,-6.2443,106.78249,1,,0,2,,
B00808P,,Islamic,,-6.228521,106.61473,1,,0,2,,
B00810P,,Istiqlal 1,,-6.172371,106.83071,1,,0,1,,
B00813P,,ITC Cipulir,,-6.237701,106.76515,1,,0,2,,
B00814P,,ITC Fatmawati,,-6.26352,106.79716,1,,0,2,,
B00817P,,ITC Serpong 1,,-6.286016,106.66493,1,,0,2,,
B00818P,,ITC Serpong 2,,-6.286624,106.66563,1,,0,2,,
B00821P,,Jagakarsa St. Lenteng Agung,,-6.332399,106.83506,1,,0,2,,
B00822P,,Jagal 1,,-6.190849,106.93465,1,,0,2,,
B00823P,,Jagal 2,,-6.190792,106.93472,1,,0,2,,
B00824P,,Jaha,,-6.292428,106.81245,1,,0,2,,
B00830P,,Jakarta Islamic Hospital,,-6.299909,106.86966,1,,0,2,,
B00731P,,H. Samali,,-6.265888,106.84407,1,,0,2,,
B00856P,,Jln. Anggrek Srengseng,,-6.19818,106.75616,1,,0,2,,
B00864P,,Jln. Anugrah Raya,,-6.258951,106.91029,1,,0,2,,
B00865P,,Jln. Ar Ridho,,-6.308148,106.86935,1,,0,2,,
B00866P,,Jln. Arus Jati,,-6.208011,106.90193,1,,0,2,,
B00875P,,Jln. Asmin 2,,-6.308725,106.87205,1,,0,2,,
B05282P,,SMAN 85,,-6.215171,106.75989,1,,0,2,,
B00881P,,Jln. Bacang Lubang Buaya,,-6.288935,106.89713,1,,0,2,,
B00882P,,Jln. Bak Air 1,,-6.115015,106.87245,1,,0,2,,
B00883P,,Jln. Bakti,,-6.249166,107.01577,1,,0,2,,
B00888P,,Jln. Bambu Hubuny,,-6.308983,106.89799,1,,0,2,,
B00889P,,Jln. Bambu I Srengseng,,-6.2067,106.75853,1,,0,2,,
B00890P,,Jln. Bambu II Srengseng,,-6.211011,106.75922,1,,0,2,,
B00894P,,Jln. Bandengan Utara 1,,-6.13609,106.80391,1,,0,2,,
B00895P,,Jln. Bangka I,,-6.240656,106.82043,1,,0,2,,
B00897P,,Jln. Banjarsari II,,-6.291119,106.79511,1,,0,2,,
B00900P,,Jln. Baru 1,,-6.196981,106.62583,1,,0,2,,
B00901P,,Jln. Baru Tanah Merdeka,,-6.307818,106.87362,1,,0,2,,
B00903P,,Jln. Batang Hari Cideng Barat,,-6.173482,106.81125,1,,0,2,,
B00904P,,Jln. Batas Dua,,-6.321501,106.83191,1,,0,2,,
B00907P,,Jln. Batu 1,,-6.268701,106.846,1,,0,2,,
B00914P,,Jln. Batu Tumbuh,,-6.272596,106.86722,1,,0,2,,
B00917P,,Jln. BB Utara,,-6.120279,106.79409,1,,0,2,,
B00919P,,Jln. Bek Murad,,-6.216717,106.81909,1,,0,2,,
B00926P,,Jln. Bendi Baru,,-6.253319,106.77658,1,,0,2,,
B00886P,,Jln. Balai Rakyat,,-6.224651,106.8991,1,,0,2,,
B00939P,,Jln. Bina Lontar 1,,-6.269343,106.91171,1,,0,2,,
B00943P,,Jln. Bojong Raya,,-6.171085,106.72838,1,,0,2,,
B00951P,,Jln. Bulak Sari,,-6.263408,106.75665,1,,0,2,,
B00954P,,Jln. Bulungan 2,,-6.239771,106.79658,1,,0,2,,
B00959P,,Jln. Bungur,,-6.247708,106.7814,1,,0,2,,
B00962P,,Jln. Bungur Besar VI,,-6.171611,106.84386,1,,0,2,,
B00986P,,Jln. Cempaka Srengseng Sawah,,-6.34463,106.82821,1,,0,2,,
B00998P,,Jln. Cideng Barat Dalam,,-6.181322,106.8132,1,,0,2,,
B00999P,,Jln. Cideng Timur I,,-6.169801,106.81103,1,,0,2,,
B01001P,,Jln. Cilandak V,,-6.287313,106.79558,1,,0,2,,
B01009P,,Jln. Cipinang Muara III,,-6.220029,106.8995,1,,0,2,,
B01010P,,Jln. Cipinang Tengah,,-6.239989,106.88723,1,,0,2,,
B01015P,,Jln. Curug Raya Kalimalang,,-6.248303,106.92306,1,,0,2,,
B01021P,,Jln. Damai,,-6.242741,106.90184,1,,0,2,,
B01028P,,Jln. Damai Raya,,-6.248569,106.75674,1,,0,2,,
B01212P,,Jln. Karya Bakti Srengseng,,-6.220785,106.76032,1,,0,2,,
B01033P,,Jln. Daud I Sukabumi Utara,,-6.206437,106.77434,1,,0,2,,
B01035P,,Jln. Delima Raya,,-6.173827,106.78413,1,,0,2,,
B01036P,,Jln. Delima V,,-6.175306,106.78362,1,,0,2,,
B01037P,,Jln. Depsos Raya,,-6.263491,106.7663,1,,0,2,,
G00003,,Manggarai,,-6.208867,106.8473,1,,0,1,H00126P,A-B
B01045P,,Jln. Duku Raya,,-6.245761,106.78413,1,,0,2,,
B01053P,,Jln. Durian 1,,-6.236427,106.75785,1,,0,2,,
B01056P,,Jln. Elpa Putih II,,-6.110053,106.88721,1,,0,2,,
B01061P,,Jln. Flamboyan Srengseng,,-6.201831,106.75594,1,,0,2,,
B01062P,,Jln. Gabus Raya,,-6.301222,106.83623,1,,0,2,,
B01073P,,Jln. Galur Jaya,,-6.174642,106.85441,1,,0,2,,
B01074P,,Jln. Gambas Kodam Bintaro,,-6.259766,106.7573,1,,0,2,,
B01075P,,Jln. Gamprit Raya,,-6.27691,106.91306,1,,0,2,,
B01077P,,Jln. Gedong Panjang 1,,-6.133254,106.806,1,,0,2,,
B01078P,,Jln. Gempol Raya,,-6.307501,106.89495,1,,0,2,,
B01083P,,Jln. Gotong Royong,,-6.260007,106.79662,1,,0,2,,
B01088P,,Jln. Guru Saleh,,-6.257895,106.76611,1,,0,2,,
B01094P,,Jln. H. Ahmad,,-6.262573,106.78857,1,,0,2,,
B01096P,,Jln. H. Aman,,-6.226789,106.92316,1,,0,2,,
B01103P,,Jln. H. Gari,,-6.256091,106.75965,1,,0,2,,
B01106P,,Jln. H. Ipin,,-6.311098,106.79357,1,,0,2,,
B01040P,,Jln. Dermaga Raya,,-6.219151,106.89969,1,,0,2,,
B01114P,,Jln. H. Khair,,-6.30416,106.82083,1,,0,2,,
B01130P,,Jln. H. Muslim,,-6.309044,106.79365,1,,0,2,,
B01131P,,Jln. H. Nasir Srengseng,,-6.205389,106.75825,1,,0,2,,
B01134P,,Jln. H. Peeng Kb. Jeruk,,-6.198859,106.7773,1,,0,2,,
B01136P,,Jln. H. Ridi Swadarma,,-6.235424,106.76077,1,,0,2,,
B01137P,,Jln. H. Rohimin Swadarma,,-6.232466,106.76069,1,,0,2,,
G00004,,Manggarai,,-6.208804,106.847468,1,,0,1,H00126P,C-D-E
B01139P,,Jln. H. Saidi,,-6.303505,106.84433,1,,0,2,,
B01140P,,Jln. H. Salihun Kb. Jeruk,,-6.197429,106.77536,1,,0,2,,
B01149P,,Jln. H. Ung,,-6.164059,106.85306,1,,0,2,,
B01151P,,Jln. H. Zainuddin,,-6.259083,106.78936,1,,0,2,,
B01154P,,Jln. IKPN Bintaro,,-6.25997,106.76787,1,,0,2,,
B01156P,,Jln. Industri 1,,-6.20329,106.62026,1,,0,2,,
B01157P,,Jln. Industri 2,,-6.203092,106.62023,1,,0,2,,
B01161P,,Jln. Industri Tj. Priok,,-6.118624,106.86783,1,,0,2,,
B01170P,,Jln. Jatipadang Poncol,,-6.297767,106.83089,1,,0,2,,
B01171P,,Jln. Jaya Abadi,,-6.275357,106.91273,1,,0,2,,
B01184P,,Jln. Kaimun Jaya,,-6.292537,106.78705,1,,0,2,,
B01188P,,Jln. Kali Baru Timur VII,,-6.166793,106.85223,1,,0,2,,
H00050P,,Duri Kepa,,-6.185266,106.76842,1,,1,0,,
B01196P,,Jln. Kampung Baru II Swadarma,,-6.227325,106.76059,1,,0,2,,
B01198P,,Jln. Kampung Baru V Swadarma,,-6.224839,106.76071,1,,0,2,,
B01199P,,Jln. Kampung Utan Cilandak KKO,,-6.30194,106.81439,1,,0,2,,
B01200P,,Jln. Kapuas Cideng Barat,,-6.175132,106.81166,1,,0,2,,
B01206P,,Jln. Karet Pasar Baru Barat IV,,-6.209179,106.81756,1,,0,2,,
B01207P,,Jln. Karet Pasar Baru Barat VII,,-6.212105,106.81764,1,,0,2,,
G00005,,Manggarai,,-6.208865,106.847488,1,,0,1,H00126P,F-G-H
E00179,,Kebon Jeruk Akses A,,-6.194673,106.76876,1,,2,0,H00103P,
B01213P,,Jln. Karya Mandiri Srengseng,,-6.219143,106.76028,1,,0,2,,
B01205P,,Jln. Karet Pasar Baru Barat I,,-6.204692,106.816351,1,,0,2,,
B01214P,,Jln. Karya Sakti Srengseng,,-6.216001,106.76008,1,,0,2,,
B01215P,,Jln. Karya Sari Srengseng,,-6.216531,106.76011,1,,0,2,,
B01216P,,Jln. Karya Utama,,-6.217168,106.76249,1,,0,2,,
B01223P,,Jln. Kebagusan Dalam 1,,-6.319264,106.83334,1,,0,2,,
B01232P,,Jln. Kb. Kacang VIII,,-6.187181,106.81827,1,,0,2,,
B01233P,,Jln. Kb. Kacang X,,-6.18713,106.8201,1,,0,2,,
B01235P,,Jln. Kb. Nanas,,-6.220356,106.78136,1,,0,2,,
B01241P,,Jln. Kb. Nanas V Permata Hijau,,-6.220567,106.78137,1,,0,2,,
B01246P,,Jln. Kelapa Dua,,-6.216557,106.76997,1,,0,2,,
H00103P,,Kebon Jeruk,,-6.194311,106.76887,1,,1,2,,
G00006,,Manggarai,,-6.208922,106.84732,1,,0,1,H00126P,J-K
B01262P,,Jln. Kemang III,,-6.260088,106.81548,1,,0,2,,
B01263P,,Kemang 4,,-6.260102,106.81537,1,,0,2,,
B01264P,,Jln. Kemang Selatan I,,-6.264858,106.81618,1,,0,2,,
B01265P,,Kemang Raya 40,,-6.265429,106.81602,1,,0,2,,
B01266P,,Kemang 8,,-6.268802,106.81555,1,,0,2,,
B01268P,,Jln. Kemang Timur XVII,,-6.268651,106.82396,1,,0,2,,
B01272P,,Jln. Kenanga,,-6.287468,106.81848,1,,0,2,,
B01276P,,Jln. Kesadaran Kali Malang,,-6.239286,106.88739,1,,0,2,,
B01277P,,Jln. Kesadaran Pool Bus 1,,-6.182475,106.91309,1,,0,2,,
B01280P,,Jln. Kesehatan IV Cideng Timur,,-6.172622,106.81142,1,,0,2,,
B01282P,,Jln. KH A Wahab I,,-6.154911,106.72709,1,,0,2,,
B01202P,,Jln. Kapuk 3,,-6.217924,106.89993,1,,0,2,,
B01201P,,Jln. Kapuk 2,,-6.216186,106.90024,1,,0,2,,
E00180,,Kebon Jeruk Akses B,,-6.194673,106.76898,1,,2,0,H00103P,
B01302P,,Jln. Kramat Pangeran Syarif,,-6.28524,106.90141,1,,0,2,,
B01304P,,Jln. KRI Harimau,,-6.253467,106.79112,1,,0,2,,
B01308P,,Jln. Kunang Kunang 1,,-6.256656,107.02149,1,,0,2,,
B01309P,,Jln. Kunang Kunang 2,,-6.25692,107.02125,1,,0,2,,
B01311P,,Jln. Kwitang Timur,,-6.173788,106.85185,1,,0,2,,
B01313P,,Jln. Langgar,,-6.218336,106.75392,1,,0,2,,
B01315P,,Jln. Lapangan Merah,,-6.218499,106.75514,1,,0,2,,
B01318P,,Jln. Lapangan Tenis Srengseng,,-6.205207,106.7583,1,,0,2,,
B02219P,,Margasatwa 1,,-6.116038,106.76903,1,,0,2,,
B01324P,,Jln. Lorong 19,,-6.107881,106.89701,1,,0,2,,
B01325P,,Jln. Lorong 22,,-6.108141,106.89932,1,,0,2,,
B01326P,,Jln. Lorong 4,,-6.107701,106.89492,1,,0,2,,
B01327P,,Jln. Lorong 5,,-6.107716,106.8955,1,,0,2,,
B01328P,,Jln. Lotus Indah,,-6.116215,106.76534,1,,0,2,,
B01332P,,Jln. Madrasah Daan Mogot,,-6.155691,106.70774,1,,0,2,,
B01340P,,Jln. Makam,,-6.238418,106.77745,1,,0,2,,
B01341P,,Jln. Makmur,,-6.30788,106.86715,1,,0,2,,
B01349P,,Jln. Mangga,,-6.27047,106.79737,1,,0,2,,
G00007,,Tegal Mampang,,-6.24021,106.830969,1,,0,1,H00246P,A-B-C
B01372P,,Jln. Masjid Al Wustho,,-6.245281,106.90494,1,,0,2,,
B01374P,,Jln. Masjid Baabul Minan,,-6.220471,106.741,1,,0,2,,
B01377P,,Jln. Mastrip,,-6.306793,106.87756,1,,0,2,,
B01380P,,Jln. Melati Bhakti,,-6.229557,106.9015,1,,0,2,,
B01391P,,Jln. Merpati Raya Pesanggrahan,,-6.249642,106.75673,1,,0,2,,
B01392P,,Jln. Mesjid Abidin,,-6.229484,106.90194,1,,0,2,,
B01403P,,Jln. Minyak Raya,,-6.253372,106.83813,1,,0,2,,
B01405P,,Jln. Muara 1,,-6.304063,106.85061,1,,0,2,,
B01407P,,Jln. Mujair Raya,,-6.299485,106.83347,1,,0,2,,
B01411P,,Jln. Musyawarah Panjang Arteri,,-6.200859,106.76922,1,,0,2,,
B01416P,,Jln. Nangka,,-6.306392,106.89015,1,,0,2,,
B01417P,,Jln. Nangka 1,,-6.303876,106.84724,1,,0,2,,
B01418P,,Jln. Nangka Raya,,-6.304178,106.84515,1,,0,2,,
B01421P,,Jln. Nimun Raya,,-6.253204,106.77344,1,,0,2,,
B01428P,,Jln. Olahraga 1 Raya Bogor,,-6.267006,106.86595,1,,0,2,,
B01433P,,Jln. Pahlawan,,-6.300584,106.76211,1,,0,2,,
B01439P,,Jln. Palem,,-6.218201,106.75716,1,,0,2,,
B01440P,,Jln. Palem Jepang Baru,,-6.218391,106.61589,1,,0,2,,
B01448P,,Jln. Panca Warga IV,,-6.239508,106.88341,1,,0,2,,
B01455P,,Jln. Pangkalan Jati VI,,-6.254467,106.90953,1,,0,2,,
B01465P,,Jln. Pelita,,-6.250861,106.7782,1,,0,2,,
B01467P,,Jln. Pemancingan Srengseng,,-6.206771,106.7586,1,,0,2,,
B01468P,,Jln. Penataran,,-6.20228,106.84418,1,,0,2,,
B01470P,,Jln. Pendidikan Jatinegara Kaum,,-6.212717,106.8977,1,,0,2,,
B01476P,,Jln. Perdagangan Bintaro,,-6.27461,106.7633,1,,0,2,,
B01481P,,Jln. Pesanggrahan,,-6.308339,106.75598,1,,0,2,,
B01482P,,Jln. Peta Utara,,-6.144574,106.70249,1,,0,2,,
B01490P,,Jln. Petojo Selatan VII,,-6.168829,106.81058,1,,0,2,,
B01493P,,Jln. Pinang II Pondok Labu,,-6.310414,106.79665,1,,0,2,,
B01497P,,Jln. Pinang Raya,,-6.308942,106.79372,1,,0,2,,
B01506P,,Jln. Pluit Karang Indah XV,,-6.116999,106.78083,1,,0,2,,
B01508P,,Jln. Pluit Raya 2,,-6.125392,106.7978,1,,0,2,,
B01509P,,Jln. Poncol Jaya 1,,-6.239706,106.81889,1,,0,2,,
B01510P,,Jln. Poncol Jaya 2,,-6.239441,106.81883,1,,0,2,,
B01511P,,Jln. Pondok Kelapa Selatan,,-6.249524,106.93552,1,,0,2,,
B01529P,,Jln. Puri Lingkar Dalam,,-6.184763,106.73503,1,,0,2,,
B01530P,,Jln. Putra III Jagakarsa,,-6.335528,106.83154,1,,0,2,,
B01537P,,Jln. Rawa Indah,,-6.266569,106.91152,1,,0,2,,
B01541P,,Jln. Rejo,,-6.259506,106.79685,1,,0,2,,
B01556P,,Jln. Salman Kb. Jeruk,,-6.197895,106.77642,1,,0,2,,
B01558P,,Jln. Sandratex 1,,-6.293846,106.76507,1,,0,2,,
B01559P,,Jln. Sandratex 2,,-6.293633,106.76529,1,,0,2,,
B01570P,,Jln. Sejahtera,,-6.276295,106.91284,1,,0,2,,
B01578P,,Jln. Serdang,,-6.228906,106.91459,1,,0,2,,
B01580P,,Jln. Setia 1,,-6.269279,106.91183,1,,0,2,,
B01584P,,Jln. Simprug Golf 2,,-6.227607,106.79042,1,,0,2,,
B01597P,,Jln. Srengseng Raya 1,,-6.217561,106.75992,1,,0,2,,
B01598P,,Jln. Srengseng Raya 2,,-6.217405,106.76064,1,,0,2,,
B01600P,,Jln. Sukabumi Selatan,,-6.216704,106.76921,1,,0,2,,
B01606P,,Jln. Sunan Drajad,,-6.193665,106.89479,1,,0,2,,
B01610P,,Jln. Sungai Sambas VI,,-6.246441,106.7978,1,,0,2,,
B01613P,,Jln. Supriyadi,,-6.173794,106.65622,1,,0,2,,
B01614P,,Jln. Swadarma I,,-6.235473,106.76071,1,,0,2,,
B01615P,,Jln. Swadarma III,,-6.232719,106.76064,1,,0,2,,
B01616P,,Jln. Swadarma Raya,,-6.237451,106.76089,1,,0,2,,
B01617P,,Jln. Swadarma Utara,,-6.229106,106.76056,1,,0,2,,
B01618P,,Jln. Swadarma Utara VI,,-6.227071,106.76054,1,,0,2,,
B01620P,,Jln. Swadaya Pln,,-6.20965,106.90171,1,,0,2,,
B01622P,,Jln. Swadaya Raya,,-6.228375,106.91677,1,,0,2,,
B01624P,,Jln. Swakarsa III Pondok Kelapa,,-6.244759,106.94249,1,,0,2,,
B01550P,,Jln. Sadar,,-6.221149,106.84638,1,,0,2,,
B01581P,,Jln. Siaga Bakti 2,,-6.273291,106.84642,1,,0,2,,
B01636P,,Jln. Taman Alfa Indah,,-6.218503,106.75404,1,,0,2,,
B01639P,,Jln. Taman Kb. Sirih,,-6.182679,106.816386,1,,0,2,,
B01640P,,Jln. Taman Kemang,,-6.255317,106.8095,1,,0,2,,
B01652P,,Jln. Tanah Abang IV Cideng,,-6.177539,106.81265,1,,0,2,,
B01657P,,Jln. Tanah Tinggi III,,-6.175078,106.84765,1,,0,2,,
B01660P,,Jln. Tj. Duren Timur Raya,,-6.173797,106.78653,1,,0,2,,
B01661P,,Jln. Tj. Duren Utara 8,,-6.173847,106.78057,1,,0,2,,
B01663P,,Jln. Tj. Gedong,,-6.166664,106.79388,1,,0,2,,
B01676P,,Jln. Teluk Mandar 1,,-6.238715,106.90988,1,,0,2,,
B01677P,,Jln. Teluk Mandar 2,,-6.238944,106.91004,1,,0,2,,
B01680P,,Jln. Tiang Bendera III,,-6.134768,106.80901,1,,0,2,,
B01690P,,Jln. Trikora,,-6.304918,106.86567,1,,0,2,,
B01691P,,Jln. Tubagus Baddarudin,,-6.21249,106.89767,1,,0,2,,
B01695P,,Jln. Veteran 1,,-6.253781,106.83581,1,,0,2,,
B01696P,,Jln. Veteran 2,,-6.253771,106.83574,1,,0,2,,
B01697P,,Jln. Villa Ampera,,-6.273183,106.81589,1,,0,2,,
B02926P,,Pondok Indah Plaza,,-6.284041,106.780333,1,,0,2,,
B01715P,,Jln. Wr Supratman,,-6.305661,106.75749,1,,0,2,,
B01719P,,Jambul,,-6.259055,106.86404,1,,0,2,,
B01720P,,Jamsostek,,-6.233804,106.82229,1,,0,2,,
B01721P,,Jamsostek Gatot Subroto,,-6.232925,106.82187,1,,0,2,,
B01725P,,Jasa Warga,,-6.380045,106.85354,1,,0,2,,
B01728P,,Jatibening 1,,-6.257161,106.94651,1,,0,2,,
B01729P,,Jatibening 2,,-6.257093,106.94168,1,,0,2,,
B01730P,,Jatinegara Kaum Raya Bekasi,,-6.203351,106.90407,1,,0,2,,
B01733P,,Jatipadang Raya,,-6.293986,106.82335,1,,0,2,,
B01736P,,Jelambar 2,,-6.166706,106.78643,1,,0,2,,
B01731P,,Jatinegara RS Premier 1,,-6.221992,106.86818,1,,0,2,,
B01740P,,Jembatan Buperta Tol Jagorawi,,-6.368267,106.89449,1,,0,2,,
B01751P,,Jembatan Kota Intan,,-6.132329,106.81055,1,,0,2,,
B01753P,,Jembatan Merah 1,,-6.221164,106.84618,1,,0,2,,
G00008,,Tegal Mampang,,-6.240215,106.830883,1,,0,1,H00246P,D-E-F
B01760P,,Jembatan Pesakih Semanan,,-6.155824,106.716,1,,0,2,,
B01762P,,Jembatan Pintu Satu,,-6.300382,106.88363,1,,0,2,,
B01778P,,JIEP 1,,-6.192968,106.90579,1,,0,2,,
B01779P,,Jiep 2,,-6.192554,106.90569,1,,0,2,,
B01780P,,Joe,,-6.318127,106.83576,1,,0,2,,
B01781P,,Joglo,,-6.220009,106.74171,1,,0,2,,
B01784P,,JPO Asrama Polri Cideng,,-6.17963,106.81277,1,,0,2,,
B01785P,,JPO Barat Pondok Indah 1,,-6.28723,106.77936,1,,0,2,,
B01786P,,JPO Blok E,,-6.184738,106.81492,1,,0,2,,
B01787P,,JPO Blok G,,-6.188861,106.81135,1,,0,2,,
B01790P,,JPO Timur Pondok Indah 1,,-6.287054,106.77989,1,,0,2,,
B01792P,,Juraganan,,-6.220342,106.79119,1,,0,2,,
H00102P,,Bungur,,-6.252688,106.78164,1,,1,2,,
B01794P,,Kalibata City 1,,-6.255951,106.85404,1,,0,2,,
B01795P,,Kalibata City 2,,-6.255816,106.85237,1,,0,2,,
B01798P,,Kalideres 1,,-6.154249,106.70544,1,,0,2,,
B01802P,,Kampung Irian Gg. IV,,-6.155068,106.86172,1,,0,2,,
B01803P,,Kampung Jembatan Ngurah Rai,,-6.216438,106.92909,1,,0,2,,
B01804P,,Kampung Melayu Besar 2,,-6.225314,106.86292,1,,0,2,,
B01805P,,Kampung Melayu Kecil,,-6.22499,106.86306,1,,0,2,,
B01806P,,Kampung Padaengan 1,,-6.189361,106.93472,1,,0,2,,
B01807P,,Kampung Padaengan 2,,-6.189465,106.93484,1,,0,2,,
B01791P,,Juanda Istiqlal,,-6.168147,106.83112,1,,0,1,,
B01809P,,Kampus IISIP,,-6.323176,106.83487,1,,0,2,,
B01811P,,Kampus Uin 1,,-6.307572,106.75603,1,,0,2,,
B01812P,,Kampus Uin 2,,-6.307533,106.75621,1,,0,2,,
B01813P,,Kanisius,,-6.185327,106.83551,1,,0,2,,
B01816P,,Kantor Pos Cikini,,-6.187198,106.836462,1,,0,2,,
B01818P,,Kantor Pos Fatmawati,,-6.294496,106.79505,1,,0,2,,
B01821P,,Kantor Pos Jaktim,,-6.193674,106.9012,1,,0,2,,
B01822P,,Kantor Pos Kebayoran Lama,,-6.249119,106.778,1,,0,2,,
B01824P,,Kantor Pos Lapangan Banteng,,-6.16877,106.83507,1,,0,2,,
B01825P,,Kantor Pos Mampang,,-6.240216,106.82259,1,,0,2,,
B01828P,,Kapin,,-6.248853,106.93019,1,,0,2,,
B01829P,,Karang Asri,,-6.112414,106.77306,1,,0,2,,
B01830P,,Karang Asri 2,,-6.116073,106.77399,1,,0,2,,
B01831P,,Karet Kuningan 1,,-6.217406,106.83108,1,,0,2,,
G00009,,Masjid Agung,,-6.236472,106.798412,1,,0,0,H00127P,A-B
B01833P,,Karet Pedurenan 1,,-6.221933,106.82093,1,,0,2,,
B01838P,,Karet Tengsin,,-6.20698,106.81696,1,,0,2,,
B01839P,,Kartika Candra,,-6.228333,106.81878,1,,0,2,,
B01840P,,Kartini,,-6.199557,106.82891,1,,0,2,,
B01775P,,JGC Indonesia,,-6.292686,106.802416,1,,0,2,,
B01837P,,Karet Sudirman 3,,-6.212197,106.81995,1,,0,2,,
B01835P,,Karet Sudirman 1,,-6.212995,106.82,1,,0,2,,
B01841P,,Kartini Hospital 1,,-6.238072,106.76997,1,,0,2,,
B01842P,,Kartini Hospital 2,,-6.237876,106.76942,1,,0,2,,
B01843P,,Kav Agraria Duren Sawit,,-6.247691,106.91204,1,,0,2,,
B01844P,,Kav Marinir Kalimalang,,-6.247975,106.92659,1,,0,2,,
B01846P,,Kav Polri Blok E Jagakarsa,,-6.314309,106.81633,1,,0,2,,
B01847P,,Kav Polri Blok H Jagakarsa,,-6.312293,106.81629,1,,0,2,,
B01852P,,Kayuringin 1,,-6.245825,106.99277,1,,0,2,,
B01853P,,Kayuringin 2,,-6.245948,106.99247,1,,0,2,,
B01854P,,KBN Marunda 1,,-6.110057,106.94448,1,,0,2,,
B01855P,,KBN Marunda 2,,-6.110318,106.94452,1,,0,2,,
B01857P,,Kebagusan Raya,,-6.296314,106.82703,1,,0,2,,
B01858P,,Kebantenan,,-6.114554,106.9264,1,,0,2,,
B01859P,,Kebayoran Baru Velbak 1,,-6.239561,106.78532,1,,0,2,,
G00010,,Masjid Agung,,-6.236477,106.798482,1,,0,0,H00127P,C-D
B01862P,,Kb. Jeruk 1,,-6.194741,106.76878,1,,0,2,,
B01863P,,Kb. Kangkung,,-6.179638,106.644,1,,0,2,,
B01864P,,Kb. Nanas,,-6.221291,106.63364,1,,0,2,,
B01865P,,Kec. Cakung,,-6.183887,106.94001,1,,0,2,,
B01875P,,Kec. Kembangan,,-6.195068,106.74247,1,,0,2,,
B01877P,,Kec. Kramat Jati,,-6.284472,106.87141,1,,0,2,,
B01881P,,Kec. Pasar Minggu,,-6.285563,106.8353,1,,0,2,,
B01882P,,Kec. Pesanggrahan,,-6.256912,106.7564,1,,0,2,,
B01884P,,Kec. Pondok Gede,,-6.280944,106.91355,1,,0,2,,
B01887P,,Kec. Tanah Abang,,-6.200098,106.815,1,,0,2,,
B01893P,,Kedubes Malaysia,,-6.22384,106.83259,1,,0,2,,
B01894P,,Kehakiman,,-6.176674,106.64456,1,,0,2,,
B01896P,,Kejaksaan Negeri Jakbar,,-6.184648,106.73731,1,,0,2,,
B01888P,,Kec. Tebet 1,,-6.23204,106.84534,1,,0,2,,
B01889P,,Kec. Tebet 2,,-6.23151,106.84564,1,,0,2,,
B01826P,,Kantor Pos Pondok Bambu,,-6.231973,106.89742,1,,0,2,,
H00237P,,Tanah Kusir,,-6.256997,106.78168,1,,1,2,,
B01904P,,Kel. Benhil,,-6.201552,106.80809,1,,0,2,,
G00011,,Asean,,-6.239863,106.798965,1,,0,1,H00265P,3B-3C
B01925P,,Kel. Kb. Kacang,,-6.190837,106.81501,1,,0,2,,
B01916P,,Kel. Gandaria Utara,,-6.257036,106.789811,1,,0,2,,
B05101P,,Simpang Rawa Belong Kemanggisan,,-6.198872,106.78212,1,,0,2,,
B01932P,,Kel. Pegangsaan Dua,,-6.1546,106.91056,1,,0,2,,
B01934P,,Kel. Penggilingan,,-6.202675,106.93106,1,,0,2,,
B01939P,,Kel. Pulo,,-6.250962,106.80962,1,,0,2,,
B01940P,,Kel. Pulo Gebang,,-6.215805,106.9546,1,,0,2,,
B06987P,,Sbr. Jln. Metro Kencana IV,,-6.274106,106.782369,1,,0,0,,
B01947P,,Kel. Srengseng,,-6.203472,106.75694,1,,0,2,,
B05178P,,Simpang Tj. Duren Timur 6,,-6.182362,106.78363,1,,0,2,,
B01962P,,Kemenkes 1,,-6.230706,106.83284,1,,0,2,,
B01963P,,Kemenkes 2,,-6.2287,106.83302,1,,0,2,,
B01964P,,Kemensos,,-6.198662,106.85328,1,,0,2,,
B01965P,,Kementan,,-6.294976,106.82448,1,,0,2,,
B01968P,,Kementerian ESDM,,-6.183203,106.82382,1,,0,2,,
B01970P,,Kementerian Pertanian,,-6.29705,106.82127,1,,0,2,,
B01975P,,Kesatriyaan,,-6.206703,106.85835,1,,0,2,,
B01977P,,KH Ahmad Dahlan,,-6.247088,106.79194,1,,0,2,,
B01979P,,Khong Guan Wahid Hasyim,,-6.187193,106.82815,1,,0,2,,
B01982P,,KKDM,,-6.239629,106.88149,1,,0,2,,
B01984P,,Klapa Village Pondok Kelapa,,-6.238159,106.94153,1,,0,2,,
B01969P,,Kementerian Pariwisata,,-6.1795,106.82255,1,,0,2,,
B01945P,,Kel. Senen,,-6.172453,106.84292,1,,0,2,,
B01905P,,Kel. Bintaro,,-6.273047,106.76405,1,,0,2,,
P00275,,Keselamatan,,-6.222946,106.84745,1,,0,2,B01976P,
B01966P,,Kementerian Agama,,-6.183405,106.82236,1,,0,2,,
B01994P,,Klinik Otista,,-6.227394,106.86709,1,,0,2,,
B01998P,,Klinik Sasana Husada,,-6.240106,106.79406,1,,0,2,,
B02003P,,Kodam Bintaro,,-6.25945,106.75871,1,,0,2,,
B02008P,,Kolong Tol Guru Saleh,,-6.257605,106.76529,1,,0,2,,
B02009P,,Kolong Tol Jakarta Serpong 1,,-6.256082,106.76049,1,,0,2,,
B02010P,,Kolong Tol Jakarta Serpong 2,,-6.256039,106.76062,1,,0,2,,
B02012P,,Komdak 1,,-6.222333,106.81407,1,,0,2,,
B01959P,,Kemayoran 1,,-6.162734,106.84037,1,,0,2,,
B02013P,,Komdak 2,,-6.221715,106.81426,1,,0,2,,
B02014P,,Kompas Gramedia,,-6.210472,106.79598,1,,0,2,,
B02015P,,Komplek Abadi 1,,-6.229617,106.90793,1,,0,2,,
B02016P,,Komplek Abadi 2,,-6.229722,106.90813,1,,0,2,,
B02017P,,Komplek Al,,-6.297741,106.84018,1,,0,2,,
B01860P,,Kebayoran Baru Velbak 2,,-6.239272,106.78492,1,,0,2,,
B02022P,,Komplek BKN Sumur Batu,,-6.161675,106.87164,1,,0,2,,
B02023P,,Komplek BPPT,,-6.194517,106.7556,1,,0,2,,
B02026P,,Komplek Ddn Bintara Jaya,,-6.242328,106.94271,1,,0,2,,
B02029P,,Komplek Dirgantara III Halim PK,,-6.284809,106.90458,1,,0,2,,
B02032P,,Komplek Dolog Jaya,,-6.24794,106.91572,1,,0,2,,
B02034P,,Komplek DPR I Kb. Jeruk,,-6.198878,106.77685,1,,0,2,,
B02045P,,Komplek Keuangan,,-6.234028,106.84417,1,,0,2,,
B02048P,,Komplek Kodam Jaya Kb. Jeruk,,-6.197819,106.77097,1,,0,2,,
B02052P,,Komplek Mandiri Giant Express 1,,-6.297385,106.76499,1,,0,2,,
B02053P,,Komplek Mandiri Giant Express 2,,-6.297573,106.76499,1,,0,2,,
B02055P,,Komplek Pelni,,-6.380018,106.85409,1,,0,2,,
B02056P,,Komplek Pemda 1,,-6.212493,106.61943,1,,0,2,,
B02057P,,Komplek Pemda 2,,-6.212336,106.61938,1,,0,2,,
B02059P,,Komplek Pertokoan Cempaka Putih,,-6.173296,106.85976,1,,0,2,,
B02063P,,Komplek Polri Kalideres,,-6.156402,106.7049,1,,0,2,,
B02064P,,Komplek Polri Ragunan,,-6.283756,106.81918,1,,0,2,,
B02066P,,Komplek Ruko Interkota,,-6.166979,106.72717,1,,0,2,,
B02068P,,Komplek Uin,,-6.308924,106.75601,1,,0,2,,
B02070P,,Komplek Wijaya Kusuma 1,,-6.229588,106.90531,1,,0,2,,
B02071P,,Komplek Wijaya Kusuma 2,,-6.229694,106.90495,1,,0,2,,
B02076P,,Konsil Kedokteran Indonesia,,-6.194458,106.83649,1,,0,2,,
B02082P,,Casablanca,,-6.22425,106.84452,1,,0,2,,
B02086P,,KPP Pratama Cakung 2,,-6.187946,106.96142,1,,0,2,,
B02087P,,KPP Pratama Cilandak,,-6.292521,106.80893,1,,0,2,,
B02092P,,KPP Pratama Tanah Abang,,-6.197731,106.8144,1,,0,2,,
B02094P,,KPPU,,-6.167212,106.8226,1,,0,2,,
B02095P,,KPU,,-6.199411,106.82749,1,,0,2,,
B02096P,,Kramat Pela,,-6.249958,106.79544,1,,0,2,,
B02062P,,Komplek Polri Duren Tiga,,-6.254275,106.830853,1,,0,2,,
B02102P,,Kuningan Barat 1,,-6.237361,106.82759,1,,0,2,,
B02103P,,Kuningan Madya 2,,-6.213358,106.83027,1,,0,2,,
B02104P,,Kuningan Media,,-6.208989,106.83039,1,,0,2,,
B02105P,,Kuningan Timur 2,,-6.235912,106.82765,1,,0,2,,
B02107P,,Kwk Unkermil Timur II,,-6.245641,106.91984,1,,0,2,,
B02108P,,Lakesgilut TNI AU 1,,-6.287631,106.89811,1,,0,2,,
B02109P,,Lakesgilut TNI AU 2,,-6.287858,106.89803,1,,0,2,,
G00012,,Asean,,-6.239911,106.79897,1,,0,1,H00265P,3D-3E-3F
B02111P,,Lapangan Banteng 1,,-6.1713,106.83368,1,,0,2,,
B02112P,,Lapangan Banteng 2,,-6.171659,106.83527,1,,0,2,,
B02117P,,Lapangan Hankam,,-6.258139,106.76796,1,,0,2,,
B02120P,,Lapangan PIK Penggilingan,,-6.205229,106.92882,1,,0,2,,
B02121P,,Lapangan Pondok Gede,,-6.28213,106.91371,1,,0,2,,
B02122P,,Lapangan Ros,,-6.225111,106.8546,1,,0,2,,
G00013,,Senayan Bank Jakarta,,-6.224206,106.80589,1,,0,1,H00067P,A-B-C
B02128P,,Layur 2,,-6.19339,106.89862,1,,0,2,,
B02130P,,Lembaga Ilmu Pengetahuan 1,,-6.228921,106.81852,1,,0,2,,
B02132P,,Lemigas,,-6.237935,106.76689,1,,0,2,,
B02133P,,Lenteng Agung,,-6.322025,106.83629,1,,0,2,,
B02134P,,Lenteng Agung Barat,,-6.308962,106.83803,1,,0,2,,
B02135P,,Les Belles Maisons 1,,-6.262578,106.65378,1,,0,2,,
B02136P,,Les Belles Maisons 2,,-6.262386,106.65391,1,,0,2,,
B02139P,,Limo,,-6.225483,106.78881,1,,0,2,,
B02140P,,Lintas Atas Kuningan Mampang,,-6.237898,106.82676,1,,0,2,,
B02141P,,Lion Center,,-6.240451,106.87898,1,,0,2,,
B02143P,,Lion Metal 2,,-6.185858,106.95209,1,,0,2,,
B02144P,,Lippo Mall Kramat Jati,,-6.270835,106.86741,1,,0,2,,
B02146P,,Litbang Pertanian,,-6.285245,106.83725,1,,0,2,,
B02151P,,London School,,-6.205065,106.81662,1,,0,2,,
B02156P,,Lotte Mart Kelapa Gading,,-6.154215,106.89467,1,,0,2,,
B02157P,,Lotte Mart Serpong 1,,-6.248159,106.64973,1,,0,2,,
B02158P,,Lotte Mart Serpong 2,,-6.248116,106.64991,1,,0,2,,
B02155P,,Satrio 6,,-6.222992,106.82306,1,,0,2,,
B02160P,,LP3I,,-6.286793,106.84369,1,,0,2,,
B02161P,,LPP RRI 1,,-6.252131,106.7913,1,,0,2,,
B02162P,,LPP RRI 2,,-6.252092,106.79141,1,,0,2,,
B02163P,,LPPI 1,,-6.261622,106.81565,1,,0,2,,
B02164P,,LPPI,,-6.262043,106.81581,1,,0,2,,
B02885P,,PLTU Pluit,,-6.112358,106.78608,1,,0,2,,
B02185P,,Mall Bale Kota,,-6.181306,106.64346,1,,0,2,,
B02186P,,Mall Basura 1,,-6.225218,106.87856,1,,0,2,,
B02187P,,Mall Basura 2,,-6.225004,106.87763,1,,0,2,,
B02189P,,Mall Cipinang Indah 1,,-6.239676,106.89405,1,,0,2,,
B02190P,,Mall Cipinang Indah 2,,-6.240012,106.89432,1,,0,2,,
B02191P,,Mall Kelapa Gading,,-6.156338,106.90815,1,,0,2,,
B02170P,,Madya Kebantenan,,-6.114349,106.926264,1,,0,2,,
B02192P,,Mall Metropolitan,,-6.247861,106.99215,1,,0,2,,
B02194P,,Mall Taman Palem 2,,-6.139245,106.73032,1,,0,2,,
B02196P,,Mall Thamrin City,,-6.194341,106.81453,1,,0,2,,
B02197P,,Mampang 5,,-6.24539,106.82584,1,,0,2,,
B02198P,,Mampang Prapatan 1,,-6.242554,106.82585,1,,0,2,,
B02207P,,Mandara Permai 5,,-6.116188,106.76214,1,,0,2,,
B02208P,,Mandara Permai 6,,-6.11621,106.75871,1,,0,2,,
B02209P,,Mandiri Griya Mampang,,-6.240269,106.82884,1,,0,2,,
B02214P,,Manggala Wanabakti,,-6.204951,106.79963,1,,0,2,,
B02217P,,Margaguna 1,,-6.263332,106.78775,1,,0,2,,
H00083P,,Jelambar,,-6.166548,106.78651,1,,1,2,,
B02220P,,Margasatwa 2,,-6.116182,106.76908,1,,0,2,,
B02221P,,Markas,,-6.177758,106.77997,1,,0,2,,
G00014,,Senayan Bank Jakarta,,-6.224286,106.805761,1,,0,1,H00067P,D-E-F
B02231P,,Masjid Al Barkah 1,,-6.184871,106.9456,1,,0,2,,
B02232P,,Masjid Al Barkah 2,,-6.184779,106.94595,1,,0,2,,
B02240P,,Masjid Al Hidayah,,-6.216385,106.86296,1,,0,2,,
B02244P,,Masjid Al Huda Kemayoran,,-6.163822,106.85274,1,,0,2,,
B02183P,,Ambassador,,-6.224125,106.82663,1,,0,2,,
B02215P,,Kuningan 18,,-6.225239,106.83015,1,,0,2,,
B02250P,,Masjid Al Khoiriyah Jagakarsa,,-6.327092,106.8294,1,,0,2,,
B02253P,,Masjid Al Mukarromah Jampea,,-6.108361,106.90098,1,,0,2,,
B02262P,,Masjid Amar Maruf 1,,-6.255234,107.02205,1,,0,2,,
B02263P,,Masjid Amar Maruf 2,,-6.255062,107.02206,1,,0,2,,
B02265P,,Masjid Annur Radio Dalam,,-6.260666,106.78889,1,,0,2,,
B02272P,,Masjid As Sudairi,,-6.220626,106.8591,1,,0,2,,
B02274P,,Masjid Assuada,,-6.194327,106.90544,1,,0,2,,
B02276P,,Masjid At Taqwa,,-6.24055,106.6472,1,,0,2,,
B02277P,,Masjid At Taqwa 1,,-6.276957,106.84587,1,,0,2,,
B02278P,,Masjid At Taqwa 2,,-6.277593,106.84563,1,,0,2,,
B02281P,,Masjid At Tin,,-6.298547,106.88326,1,,0,2,,
B02282P,,Masjid Attahiriyah,,-6.225242,106.86019,1,,0,2,,
B02286P,,Masjid Baitul Mukhlish Serdang,,-6.155614,106.85854,1,,0,2,,
B02287P,,Masjid Baiturrahman 1,,-6.210375,106.61931,1,,0,2,,
B02288P,,Masjid Baiturrahman 2,,-6.209473,106.61918,1,,0,2,,
G00015,,Senayan Bank Jakarta,,-6.224212,106.805729,1,,0,1,H00067P,G-H-J
B02303P,,Masjid Hifdzirrahim,,-6.257359,106.75963,1,,0,2,,
B02306P,,Masjid Jami Al Badariah Kemayoran,,-6.153055,106.85922,1,,0,2,,
B02307P,,Masjid Jami Al Barkah 1,,-6.229411,106.91212,1,,0,2,,
B02308P,,Masjid Jami Al Barkah 2,,-6.229538,106.91204,1,,0,2,,
B02313P,,Masjid Jami Al Inayah,,-6.224554,106.86945,1,,0,2,,
B02317P,,Masjid Jami Al Makmur 1,,-6.189195,106.81549,1,,0,2,,
B02318P,,Masjid Jami Al Makmur 2,,-6.18896,106.81516,1,,0,2,,
B02319P,,Masjid Jami Al Makmur Klender,,-6.212322,106.90082,1,,0,2,,
B02321P,,Masjid Jami Al Muflihun,,-6.255722,106.76884,1,,0,2,,
B02218P,,Margaguna 2,,-6.26343,106.78772,1,,0,2,,
B02291P,,Masjid Cut Meutia 1,,-6.186763,106.834,1,,0,2,,
B02300P,,Masjid Guru Amin,,-6.258186,106.8434,1,,0,2,,
B02269P,,Masjid Arrohmah,,-6.314733,106.83653,1,,0,2,,
B02332P,,Masjid Jami Assyakirin Kalimalang,,-6.239262,106.88963,1,,0,2,,
B02334P,,Masjid Jami At Taqwa 1,,-6.229509,106.89568,1,,0,2,,
B02335P,,Masjid Jami At Taqwa 2,,-6.229704,106.8962,1,,0,2,,
B02342P,,Masjid Jami Baiturrahman,,-6.216586,106.84412,1,,0,2,,
B02351P,,Masjid Jami Nurul Ain 1,,-6.227717,106.91976,1,,0,2,,
B02352P,,Masjid Jami Nurul Ain 2,,-6.227874,106.91942,1,,0,2,,
B02361P,,Masjid Luar Batang,,-6.126266,106.8044,1,,0,2,,
B02364P,,Masjid Nurul Falah,,-6.257714,106.81326,1,,0,2,,
B02365P,,Masjid Nurul Falah Ragunan,,-6.301357,106.82121,1,,0,2,,
B02368P,,Masjid Nurul Iman Joglo,,-6.21731,106.76208,1,,0,2,,
B02369P,,Masjid Nurul Iman Kubur Batu,,-6.197613,106.74443,1,,0,2,,
B02373P,,Masjid Pondok Indah 1,,-6.261581,106.78234,1,,0,2,,
B02374P,,Masjid Pondok Indah 2,,-6.261469,106.78201,1,,0,2,,
B05375P,,SMPN 240,,-6.26076,106.78895,1,,0,2,,
B02379P,,Masjid Raya KH Hasyim Asyari,,-6.159272,106.71708,1,,0,2,,
B02380P,,Masjid Raya Nurul Hidayah,,-6.253434,106.77626,1,,0,2,,
B02386P,,Matraman 3,,-6.200407,106.85452,1,,0,2,,
B02387P,,Matraman 4,,-6.199782,106.8545,1,,0,2,,
B02389P,,Mayang Permai,,-6.116421,106.75963,1,,0,2,,
B02391P,,Mayestik 1,,-6.242041,106.79116,1,,0,2,,
B02394P,,Mediterania Boulevard,,-6.116048,106.76505,1,,0,2,,
B02395P,,Mediterania Garden Residences,,-6.173818,106.7882,1,,0,2,,
B02396P,,Mega Kuningan,,-6.224556,106.82677,1,,0,2,,
B02397P,,Mega Mall Bekasi,,-6.250287,106.992,1,,0,2,,
B02398P,,Mega Syariah,,-6.228294,106.83335,1,,0,2,,
B02399P,,Megaria,,-6.200045,106.84456,1,,0,2,,
B02402P,,Megatama,,-6.2473,106.91049,1,,0,2,,
B02404P,,Melati Mas Residence 1,,-6.271343,106.65549,1,,0,2,,
B02405P,,Melati Mas Residence 2,,-6.271291,106.65563,1,,0,2,,
B02406P,,Melawai Plaza,,-6.245853,106.80285,1,,0,2,,
B02408P,,Menara Astra,,-6.207361,106.8219,1,,0,2,,
B02409P,,Menara Bidakara,,-6.242012,106.84064,1,,0,2,,
B02411P,,Menara Duta,,-6.208617,106.82986,1,,0,2,,
B02412P,,Menara Karya,,-6.233275,106.831276,1,,0,2,,
B02414P,,Menara Mandiri,,-6.223667,106.8071,1,,0,2,,
B02416P,,Menara Mulia,,-6.225452,106.81678,1,,0,2,,
B02420P,,Menara Thamrin,,-6.185275,106.82291,1,,0,2,,
B02422P,,Menteng 1,,-6.19851,106.82835,1,,0,2,,
B02423P,,Menteng 2,,-6.198706,106.82843,1,,0,2,,
B02426P,,Merpati,,-6.232175,106.84496,1,,0,2,,
B02427P,,Meruya Taman Aries,,-6.19167,106.74536,1,,0,2,,
B02425P,,Sbr. Kanisius,,-6.185519,106.83586,1,,0,2,,
B02393P,,MBAU,,-6.245829,106.8428,1,,0,2,,
B02434P,,Metric PIK,,-6.114346,106.75527,1,,0,2,,
B02435P,,Metro Pondok Indah,,-6.265966,106.78347,1,,0,2,,
B02454P,,MIN 8 Srengseng Sawah,,-6.335943,106.82628,1,,0,2,,
B02456P,,Minangkabau,,-6.214104,106.84341,1,,0,2,,
B02465P,,Minimarket Sunter Jaya 2,,-6.154491,106.86168,1,,0,2,,
B02467P,,Mitra 10 Meruya Ilir,,-6.196032,106.75605,1,,0,2,,
B02472P,,Moch Yusuf Raya 1,,-6.379631,106.84094,1,,0,2,,
B02473P,,Moch Yusuf Raya 2,,-6.379677,106.84152,1,,0,2,,
B02474P,,MOI Kelapa Gading,,-6.15082,106.88904,1,,0,2,,
B02475P,,Monas 1,,-6.172531,106.82315,1,,0,2,,
B02484P,,MTsN 3 Jakarta,,-6.282637,106.771884,1,,0,2,,
B02489P,,Muara Angke,,-6.110009,106.77471,1,,0,2,,
B02490P,,Muara Dalam,,-6.304439,106.85088,1,,0,2,,
B02494P,,Multivision Tower,,-6.212282,106.83292,1,,0,2,,
B02499P,,Museum Bank Indonesia,,-6.137242,106.81332,1,,0,2,,
B02503P,,Museum Proklamasi,,-6.200007,106.83113,1,,0,2,,
B02504P,,Museum Satria Mandala,,-6.230525,106.81963,1,,0,2,,
B02476P,,Monas 2,,-6.175999,106.82311,1,,0,2,,
B02477P,,Monas 3,,-6.178787,106.82304,1,,0,2,,
H00138S,,Kali Grogol Arah Utara,,-6.16106,106.7904,1,,1,2,,
B02529P,,Naga Jatiwaringin,,-6.248395,106.90784,1,,0,2,,
B02532P,,Nifarro Park,,-6.263007,106.84332,1,,0,2,,
B02533P,,Nizamia Andalusia,,-6.307781,106.8977,1,,0,2,,
B02535P,,Nusantara,,-6.227142,106.88136,1,,0,2,,
B02536P,,Olieku Jln. Aries Permai,,-6.197188,106.74819,1,,0,2,,
B02538P,,One Belpark 1,,-6.304695,106.79445,1,,0,2,,
B02539P,,One Belpark 2,,-6.303784,106.79445,1,,0,2,,
B02540P,,One Park Residences,,-6.245436,106.78844,1,,0,2,,
B02541P,,Otorita Asahan,,-6.223991,106.8159,1,,0,2,,
B02548P,,Pajak Dan Retribusi Cakung,,-6.205256,106.9312,1,,0,2,,
B02549P,,Pajak Dan Retribusi Duren Sawit,,-6.230968,106.89767,1,,0,2,,
B02551P,,Pakualam,,-6.232864,106.64262,1,,0,2,,
B02553P,,Pal Batu 1,,-6.224652,106.84731,1,,0,2,,
B02554P,,Pal Batu 2,,-6.224559,106.8446,1,,0,2,,
B02556P,,Palem Semi 1,,-6.218812,106.61807,1,,0,2,,
B02557P,,Palem Semi 2,,-6.220361,106.61649,1,,0,2,,
B02560P,,Pancoran Barat 1,,-6.241969,106.83791,1,,0,2,,
B02561P,,Pancoran Barat 2,,-6.241462,106.83808,1,,0,2,,
B02563P,,Pancoran Tugu 2,,-6.242943,106.8444,1,,0,2,,
B02566P,,Pangkalan Jati,,-6.24762,106.90755,1,,0,2,,
B02567P,,Pangkalan Jati 1,,-6.246775,106.90827,1,,0,2,,
B02568P,,Pangkalan Jati 2,,-6.247263,106.90777,1,,0,2,,
B02581P,,Pasar Baru Gedung Kesenian Jakarta,,-6.166751,106.83524,1,,0,2,,
B02582P,,Pasar Baru Timur 1,,-6.162185,106.83798,1,,0,2,,
B02594P,,Ps. Cempaka Putih 1,,-6.172533,106.86244,1,,0,2,,
B02597P,,Ps. Ciplak,,-6.23974,106.88002,1,,0,2,,
G00016,,Senayan Bank Jakarta,,-6.224137,106.805837,1,,0,1,H00067P,K-L-M
B02599P,,Ps. Cipulir,,-6.237895,106.76523,1,,0,2,,
B02600P,,Ps. Ciputat,,-6.315627,106.74688,1,,0,2,,
B02526P,,Mutiara Taman Palem,,-6.136859,106.73136,1,,0,2,,
B02559P,,Pancoran 1,,-6.246552,106.84291,1,,0,2,,
B02608P,,Ps. Gardu,,-6.289962,106.89317,1,,0,2,,
B02611P,,Ps. Hari Hari Kalideres,,-6.148242,106.70271,1,,0,2,,
B02612P,,Ps. Hek 1,,-6.286298,106.87083,1,,0,2,,
B02613P,,Ps. Hek 2,,-6.286261,106.87094,1,,0,2,,
B02615P,,Ps. Inpres Cipinang Besar,,-6.22645,106.88078,1,,0,2,,
B02616P,,Ps. Inpres Kebayoran,,-6.235633,106.78445,1,,0,2,,
H00197S,,Kali Grogol Arah Selatan,,-6.160376,106.79097,1,,1,2,,
B02627P,,Ps. Kemayoran,,-6.161032,106.8549,1,,0,2,,
B02632P,,Ps. Kitara Baru,,-6.155275,106.85849,1,,0,2,,
B02633P,,Ps. Klender,,-6.212603,106.901141,1,,0,2,,
B02635P,,Ps. Kopro,,-6.176185,106.78364,1,,0,2,,
B02644P,,Ps. Mede,,-6.286739,106.79553,1,,0,2,,
B02647P,,Pasar Minggu,,-6.284413,106.84414,1,,0,2,,
B02562P,,Pancoran Soepomo,,-6.241757,106.844289,1,,0,2,,
B02650P,,Ps. Muara Karang,,-6.116367,106.77824,1,,0,2,,
G00017,,Polda Metro Jaya,,-6.221044,106.810241,1,,0,0,H00176P,A-B-C
B02661P,,Ps. Pesanggrahan 2,,-6.251811,106.75631,1,,0,2,,
E00444,,Tanjung Duren Arah Barat Akses B,,-6.176256,106.79217,1,,2,0,H00210S,
B02663P,,Ps. Pisang Rawa Buaya,,-6.156887,106.72783,1,,0,2,,
B02664P,,Ps. Poncol,,-6.174945,106.84557,1,,0,2,,
B02667P,,Ps. Pondok Gede,,-6.285665,106.91158,1,,0,2,,
B02668P,,Ps. Pondok Labu,,-6.312034,106.79409,1,,0,2,,
B02670P,,Ps. Pulo Gadung 1,,-6.187336,106.90597,1,,0,2,,
B02671P,,Ps. Pulo Gadung 2,,-6.18751,106.90589,1,,0,2,,
B02678P,,Ps. Santa,,-6.238971,106.8126,1,,0,2,,
B02679P,,Ps. Sayur Cipulir,,-6.237807,106.7674,1,,0,2,,
B02680P,,Ps. Senen Jaya,,-6.177735,106.84216,1,,0,2,,
B03300P,,Saadatudarain,,-6.217713,106.79229,1,,0,2,,
H00089P,,Jembatan Tiga,,-6.133383,106.79267,1,,1,2,,
B02692P,,Ps. Tomas,,-6.179192,106.81306,1,,0,2,,
B02693P,,Ps. Ujung Menteng,,-6.190104,106.96693,1,,0,2,,
B02695P,,Ps. Warung Buncit,,-6.255166,106.82493,1,,0,2,,
B02696P,,Patal Senayan,,-6.218636,106.79227,1,,0,2,,
B02697P,,Patra Kuningan 1,,-6.233264,106.8318,1,,0,2,,
B02700P,,PD Pal Jaya,,-6.204776,106.83034,1,,0,2,,
B02701P,,Pecenongan 1,,-6.16695,106.82572,1,,0,2,,
B02702P,,Pecenongan 2,,-6.167856,106.8275,1,,0,2,,
B02705P,,Pedati 1,,-6.223885,106.87445,1,,0,2,,
B02709P,,Pelabuhan Kali Adem,,-6.104615,106.77094,1,,0,2,,
G00018,,Polda Metro Jaya,,-6.221129,106.81031,1,,0,0,H00176P,D-E-F
B02720P,,Pemadam Tj. Duren,,-6.17371,106.78793,1,,0,2,,
B02732P,,Pengadilan Negeri Jaksel 1,,-6.281672,106.81949,1,,0,2,,
B02733P,,Pengadilan Negeri Jaksel 2,,-6.280584,106.81982,1,,0,2,,
B02734P,,Pengadilan Negeri Jakut,,-6.126807,106.85654,1,,0,2,,
B02735P,,Pengayoman,,-6.175358,106.64801,1,,0,2,,
G00019,,Bendungan Hilir,,-6.217172,106.815326,1,,0,1,H00010P,A-B-C
G00020,,Bendungan Hilir,,-6.217076,106.815251,1,,0,1,H00010P,D-E-F
B02708P,,Jembatan Pejambon,,-6.175454,106.83269,1,,0,2,,
B02743P,,Perlintasan Bintaro Puspita 1,,-6.264875,106.7569,1,,0,2,,
B02744P,,Perlintasan Bintaro Puspita 2,,-6.264838,106.75679,1,,0,2,,
B02746P,,Perlintasan Kereta Api Kebayoran,,-6.240914,106.78098,1,,0,2,,
B02747P,,Permai Koja 1,,-6.113894,106.89287,1,,0,2,,
B02748P,,Permai Koja 2,,-6.113777,106.89326,1,,0,2,,
B02749P,,Permata Eksekutif 1,,-6.216906,106.76541,1,,0,2,,
B02750P,,Permata Eksekutif 2,,-6.216798,106.76524,1,,0,2,,
B02751P,,Permata Hijau 1,,-6.22257,106.79028,1,,0,2,,
B02752P,,Permata Hijau RS Medika 1,,-6.218855,106.77808,1,,0,2,,
B02753P,,Permata Hijau RS Medika 2,,-6.218114,106.777,1,,0,2,,
B02756P,,Perpustakaan Umum Daerah,,-6.222302,106.83261,1,,0,2,,
B02760P,,Pertamina Kalideres Daan Mogot,,-6.15571,106.70927,1,,0,2,,
B02761P,,Pertamina Kilang Minyak,,-6.108789,106.90537,1,,0,2,,
B02762P,,Pertani,,-6.256308,106.84325,1,,0,2,,
B02766P,,Pertigaan Bintaro Taman Barat,,-6.268807,106.75359,1,,0,2,,
B02771P,,Pertigaan Dewi Sartika,,-6.258864,106.864131,1,,0,2,,
B02772P,,Pertigaan Duren Tiga Raya,,-6.254221,106.82769,1,,0,2,,
B02742P,,Perlintasan Bendi Utama,,-6.249439,106.77439,1,,0,2,,
B02759P,,Pertamina Bina Medika,,-6.253111,106.77389,1,,0,2,,
B02718P,,Pemadam Pos Tebet,,-6.240021,106.84547,1,,0,2,,
B02781P,,Pertigaan Pejaten Barat,,-6.275464,106.82066,1,,0,2,,
B02800P,,Perum Tpi 1,,-6.197379,106.93513,1,,0,2,,
B02801P,,Perum Tpi 2,,-6.19745,106.93516,1,,0,2,,
B02802P,,Perum Villa Kelapa Dua,,-6.216674,106.76745,1,,0,2,,
B02804P,,Perumahan Buddha Tzu Chi 1,,-6.107548,106.77192,1,,0,2,,
B02805P,,Perumahan Buddha Tzu Chi 2,,-6.107634,106.77184,1,,0,2,,
B02813P,,Perumahan Purna Dharma,,-6.216334,106.77313,1,,0,2,,
B02814P,,Perumahan TNI AU 1,,-6.252552,106.90944,1,,0,2,,
B02815P,,Perumahan TNI AU 2,,-6.25262,106.90928,1,,0,2,,
B05574P,,Taman Ayodya,,-6.245687,106.79467,1,,0,2,,
B02818P,,Perumnas Klender 2,,-6.216652,106.9308,1,,0,2,,
B02822P,,Pesona Khayangan,,-6.382532,106.83001,1,,0,2,,
B02823P,,Pesona Square,,-6.379606,106.84312,1,,0,2,,
B02824P,,Petojo 1,,-6.170105,106.81698,1,,0,2,,
B02829P,,PGP,,-6.203394,106.93446,1,,0,2,,
B02830P,,Pharmin,,-6.182988,106.81306,1,,0,2,,
B02831P,,Phe Tower Kebagusan,,-6.299876,106.83323,1,,0,2,,
B02832P,,PIK Avenue,,-6.108595,106.73978,1,,0,2,,
B02833P,,Pintu 2 Jembatan Semanan Raya,,-6.155916,106.70954,1,,0,2,,
B02840P,,Pintu Air Menteng,,-6.19598,106.83266,1,,0,2,,
B02847P,,Pintu Kawasan 1,,-6.189631,106.90646,1,,0,2,,
B02848P,,Pintu Kawasan 2,,-6.1896,106.90629,1,,0,2,,
B02850P,,Pintu Masuk PIK 1,,-6.203692,106.935101,1,,0,2,,
B02851P,,Pintu Masuk PIK 2,,-6.203882,106.93521,1,,0,2,,
B02854P,,Pintu Tol Cijago,,-6.380896,106.86742,1,,0,2,,
B02856P,,PKB Pulo Gadung,,-6.185733,106.90638,1,,0,2,,
B03619P,,Sbr. Hotel Mulia,,-6.214132,106.79537,1,,0,2,,
B02859P,,Plaza Adorama,,-6.258301,106.81519,1,,0,2,,
B02860P,,Plaza Blok M,,-6.244978,106.79752,1,,0,2,,
B02861P,,Plaza Europa,,-6.221188,106.61667,1,,0,2,,
B02863P,,Plaza Indonesia,,-6.193733,106.8228,1,,0,2,,
B02864P,,Plaza Kalibata,,-6.256423,106.85566,1,,0,2,,
B02867P,,Plaza Kemang 88,,-6.270202,106.81539,1,,0,2,,
B02868P,,Plaza Oleos,,-6.29771,106.82965,1,,0,2,,
B02869P,,Plaza Pp Condet 1,,-6.302522,106.85729,1,,0,2,,
B02870P,,Plaza Pp Condet 2,,-6.302391,106.85775,1,,0,2,,
B02873P,,Plaza Sentral,,-6.216247,106.81676,1,,0,2,,
B02875P,,PLN Corporate University 1,,-6.300374,106.82113,1,,0,2,,
B02876P,,PLN Corporate University 2,,-6.300935,106.82136,1,,0,2,,
B02877P,,PLN Duren Tiga 1,,-6.254389,106.83416,1,,0,2,,
B02878P,,PLN Duren Tiga 2,,-6.254234,106.83445,1,,0,2,,
B02880P,,PLN Pusat,,-6.240011,106.80376,1,,0,2,,
B02882P,,PLN Senayan,,-6.216832,106.79325,1,,0,2,,
B02884P,,PLTU,,-6.113368,106.78533,1,,0,2,,
B02886P,,Pluit 1,,-6.115636,106.7909,1,,0,2,,
B02887P,,Pluit Karang Indah,,-6.117576,106.78311,1,,0,2,,
B02889P,,Pluit Sakti,,-6.122386,106.79432,1,,0,2,,
B02892P,,PMD,,-6.26919,106.84609,1,,0,2,,
B02893P,,PMI,,-6.241288,106.8351,1,,0,2,,
B02895P,,Poins Square,,-6.289207,106.77718,1,,0,2,,
B02896P,,Polda Metro Jaya 1,,-6.221726,106.80984,1,,0,2,,
B02898P,,Polres Jakut,,-6.116415,106.89341,1,,0,2,,
B02903P,,Polsek Ciputat 1,,-6.310368,106.75502,1,,0,2,,
B02904P,,Polsek Ciputat 2,,-6.310464,106.7551,1,,0,2,,
B02905P,,Polsek Duren Sawit,,-6.247836,106.91726,1,,0,2,,
B02908P,,Polsek Kemayoran 2,,-6.159595,106.85329,1,,0,2,,
B02915P,,Poltangan,,-6.295763,106.84087,1,,0,2,,
B02916P,,Poltek Bunda Kandung,,-6.312052,106.83849,1,,0,2,,
B02919P,,Pom Bensin Ciputat,,-6.321313,106.74627,1,,0,2,,
B02920P,,Pom Bensin Mulyadi,,-6.252929,107.02303,1,,0,2,,
B02921P,,Pomad 2,,-6.261758,106.84311,1,,0,2,,
B02924P,,Pondok Gede Raya,,-6.289531,106.88027,1,,0,2,,
B02927P,,Pondok Kelapa Indah,,-6.247534,106.92144,1,,0,2,,
B02928P,,Pondok Kelapa Raya Kalimalang,,-6.24883,106.9354,1,,0,2,,
B02930P,,Pondok Yatim Kembang Kerep,,-6.196073,106.74241,1,,0,2,,
B02929P,,Pondok Molek,,-6.284375,106.908629,1,,0,2,,
B02940P,,Pool Express Tanah Kusir,,-6.255345,106.76911,1,,0,2,,
B02941P,,Pool Hiba Utama 1,,-6.206384,106.90269,1,,0,2,,
B02942P,,Pool Hiba Utama 2,,-6.20608,106.90261,1,,0,2,,
B02943P,,Pool Mayasari Bakti,,-6.202095,106.90445,1,,0,2,,
B02945P,,Pool PPD Ciputat,,-6.331231,106.74851,1,,0,2,,
B02946P,,Pool PPD Kec. Pulo Gadung,,-6.199649,106.90477,1,,0,2,,
B02947P,,Pool Taksi,,-6.188631,106.93426,1,,0,2,,
B02948P,,Pool Taksi Tanah Kusir,,-6.254506,106.77741,1,,0,2,,
B02949P,,Port Medical Center,,-6.110114,106.88939,1,,0,2,,
B02953P,,Pos 9 Pelabuhan Jict,,-6.107294,106.8957,1,,0,2,,
H00204S,,Kota Bambu Arah Utara,,-6.184489,106.79674,1,,1,2,,
B02965P,,Pos Polisi Satrio,,-6.225044,106.82827,1,,0,2,,
B02969P,,Posh Harapan Indah Raya,,-6.193852,106.97683,1,,0,2,,
B02918P,,Pom Ad 1,,-6.261949,106.84328,1,,0,2,,
B02972P,,Pospol Jati Bunder,,-6.189707,106.81317,1,,0,2,,
B02974P,,Pospol Makasar,,-6.246997,106.90659,1,,0,2,,
B02977P,,Pospol PIK Penggilingan,,-6.203442,106.93258,1,,0,2,,
B02979P,,Pospol Taman Aries,,-6.195419,106.7442,1,,0,2,,
B02981P,,Pospol Tomang 2,,-6.174341,106.80489,1,,0,2,,
B02984P,,PPKD Jaktim,,-6.247777,106.94236,1,,0,2,,
B02989P,,Prasetya Mulya,,-6.291895,106.78922,1,,0,2,,
B02990P,,Pratama Abadi,,-6.233124,106.64256,1,,0,2,,
B02993P,,PTT,,-6.109953,106.88381,1,,0,2,,
B02994P,,PTUN Jakarta,,-6.196388,106.84025,1,,0,2,,
B02995P,,PU Irigasi,,-6.201479,106.81079,1,,0,2,,
B02996P,,Pulo Asem,,-6.193384,106.89463,1,,0,2,,
B02999P,,Pulo Gadung 4,,-6.184383,106.90798,1,,0,2,,
B03014P,,Puri Imperium,,-6.210463,106.83229,1,,0,2,,
B03018P,,Puri Park View,,-6.192136,106.75572,1,,0,2,,
B03626P,,Sbr. ITC Fatmawati,,-6.26343,106.7969,1,,0,2,,
B03022P,,Pusat Mode Tanah Abang,,-6.18684,106.81579,1,,0,2,,
B02971P,,Pospol Daan Mogot Baru,,-6.155056,106.713851,1,,0,2,,
B02997P,,Term. Pulo Gadung,,-6.183245,106.90868,1,,0,2,,
B03032P,,Pusdiklat Kemenag 1,,-6.312075,106.75228,1,,0,2,,
B03033P,,Pusdiklat Kemenag 2,,-6.312209,106.75252,1,,0,2,,
B03034P,,Pusdiklat Pajak Jln. Sakti IV,,-6.188239,106.78441,1,,0,2,,
B03040P,,Puskesmas Cakung,,-6.198025,106.90511,1,,0,2,,
B03048P,,Puskesmas Kebayoran Baru,,-6.247225,106.80572,1,,0,2,,
B03050P,,Puskesmas Kelapa Gading,,-6.157489,106.90703,1,,0,2,,
B03015P,,Puri Kembangan,,-6.188874,106.73514,1,,0,2,,
B03016P,,Puri Mansion Apartement,,-6.177925,106.72821,1,,0,2,,
B03041P,,Puskesmas Cengkareng,,-6.144546,106.72866,1,,0,2,,
B02982P,,Potlot,,-6.254634,106.84265,1,,0,2,,
B03012P,,Puri Casablanca,,-6.225081,106.8384,1,,0,2,,
B03062P,,Puskesmas Petojo Utara,,-6.168238,106.81088,1,,0,2,,
B03069P,,RA Kartini,,-6.282151,106.77315,1,,0,2,,
B03071P,,Ragunan 1,,-6.305305,106.81831,1,,0,2,,
B03072P,,Ragunan 2,,-6.305283,106.81855,1,,0,2,,
B03073P,,Ramayana Cengkareng,,-6.153197,106.72803,1,,0,2,,
B03077P,,Ratu Prabu,,-6.292014,106.80853,1,,0,2,,
B03078P,,Rawa Bambu,,-6.294753,106.84078,1,,0,2,,
B03083P,,Rawa Selatan 1,,-6.174148,106.85794,1,,0,2,,
B03084P,,Rawa Selatan 2,,-6.173813,106.85771,1,,0,2,,
B03090P,,Raya Penggilingan,,-6.183068,106.93194,1,,0,2,,
B03091P,,Raya Pulo Gebang Akses St. Cakung,,-6.216671,106.95301,1,,0,2,,
B03094P,,Rest Area Cibubur,,-6.339993,106.89078,1,,0,2,,
B03095P,,Rest Area Km 13 Jakarta Merak,,-6.214583,106.68105,1,,0,2,,
B03096P,,Rest Area Km 13 Merak Jakarta,,-6.214273,106.67784,1,,0,2,,
B03097P,,Rest Area TMII,,-6.29467,106.8812,1,,0,2,,
B03101P,,Romantis PIK Penggilingan,,-6.205114,106.92803,1,,0,2,,
B03029P,,Pusdikkes,,-6.277665,106.869455,1,,0,2,,
B03119P,,RS Adhiyaksa,,-6.307077,106.8932,1,,0,2,,
B03122P,,RS Asshobirin 1,,-6.258627,106.65185,1,,0,2,,
B03123P,,RS Asshobirin 2,,-6.258481,106.65199,1,,0,2,,
H00220S,,Kemanggisan Arah Utara,,-6.189906,106.79694,1,,1,2,,
B03126P,,RS Budi Jaya,,-6.218825,106.84519,1,,0,2,,
B03127P,,RS Carolus,,-6.196081,106.85054,1,,0,2,,
B03129P,,RS Citra Harapan,,-6.185004,106.97723,1,,0,2,,
B03133P,,RS Duren Sawit,,-6.229777,106.90969,1,,0,2,,
B03135P,,RS Duren Sawit 2,,-6.232262,106.91019,1,,0,2,,
B03136P,,RS Fatmawati,,-6.29354,106.79522,1,,0,2,,
B03139P,,RS Haji Jakarta,,-6.290313,106.88948,1,,0,2,,
B03141P,,RS Harum,,-6.24778,106.90951,1,,0,2,,
B03142P,,RS Hermina,,-6.22085,106.86512,1,,0,2,,
B03148P,,RS Jantung Binawaluya,,-6.30841,106.87071,1,,0,2,,
B03153P,,RS Medistra,,-6.240411,106.83412,1,,0,2,,
B03156P,,RS Mitra Keluarga 2,,-6.24088,106.99285,1,,0,2,,
B03158P,,RS Moh Ridwan Meuraksa,,-6.294684,106.88179,1,,0,2,,
B03164P,,RS PIK,,-6.112331,106.75294,1,,0,2,,
B03165P,,RS PIK 2,,-6.112549,106.75264,1,,0,2,,
B03167P,,RS Polri Jaktim,,-6.27067,106.86732,1,,0,2,,
B03169P,,RS Pusat Pertamina 1,,-6.241352,106.79315,1,,0,2,,
B03172P,,RS Pusdikkes,,-6.277538,106.86917,1,,0,2,,
B03173P,,RS Restu Kasih,,-6.26606,106.86598,1,,0,2,,
B03174P,,RS Setia Mitra 1,,-6.281325,106.7964,1,,0,2,,
B03175P,,RS Setia Mitra 2,,-6.281358,106.79617,1,,0,2,,
B03177P,,RS Siloam,,-6.292071,106.78467,1,,0,2,,
B03180P,,RS Sumber Waras 1,,-6.166392,106.79756,1,,0,2,,
B03181P,,RS Sumber Waras 2,,-6.166121,106.79784,1,,0,2,,
B03187P,,RSCM 1,,-6.198831,106.84636,1,,0,2,,
B03191P,,RSIA Bunda,,-6.196714,106.83658,1,,0,2,,
B03192P,,RSIA Bunda 2,,-6.196015,106.83672,1,,0,2,,
B03193P,,RSIA Bunda Aliyah 1,,-6.233285,106.8966,1,,0,2,,
B03194P,,RSIA Bunda Aliyah 2,,-6.233177,106.89654,1,,0,2,,
B03195P,,RSIA Duren Tiga 1,,-6.253592,106.8413,1,,0,2,,
B03196P,,RSIA Duren Tiga 2,,-6.253509,106.84135,1,,0,2,,
B03197P,,RSIA Kemang,,-6.285839,106.8188,1,,0,2,,
B03199P,,RSPAD 1,,-6.176162,106.83987,1,,0,2,,
B03201P,,RSPAD 3,,-6.175462,106.83922,1,,0,2,,
B03203P,,RSU Dr Euis,,-6.245428,106.94255,1,,0,2,,
B03149P,,RS Mata Menteng,,-6.198015,106.837005,1,,0,2,,
B03211P,,RSUD Koja,,-6.108205,106.89982,1,,0,2,,
B03214P,,RSUD Pasar Minggu,,-6.293553,106.82083,1,,0,2,,
B03215P,,RSUD Pasar Rebo 1,,-6.304584,106.86212,1,,0,2,,
B03216P,,RSUD Pasar Rebo 2,,-6.304616,106.86245,1,,0,2,,
B03220P,,RSUD Tarakan,,-6.172239,106.81098,1,,0,2,,
B03226P,,Rukan Teuku Umar,,-6.195499,106.62391,1,,0,2,,
B03227P,,Ruko Aries Niaga,,-6.192569,106.74462,1,,0,2,,
B03228P,,Ruko Boulevard Barat Raya,,-6.152164,106.89078,1,,0,2,,
B03229P,,Ruko BSD Sektor 7,,-6.281034,106.66287,1,,0,2,,
B03230P,,Ruko Bungur Besar,,-6.161321,106.83979,1,,0,2,,
B03233P,,Ruko Cordoba 1,,-6.112419,106.74356,1,,0,2,,
B03234P,,Ruko Cordoba 2,,-6.112645,106.74356,1,,0,2,,
B03236P,,Ruko Enggano,,-6.10982,106.88493,1,,0,2,,
B03200P,,RSPAD 2,,-6.177322,106.83824,1,,0,2,,
B03171P,,RS Pusat Pertamina 3,,-6.239806,106.79431,1,,0,2,,
B03183P,,RS Tria Dipa,,-6.250297,106.84261,1,,0,2,,
H00270P,,Ps. Palmerah,,-6.207817,106.79695,1,,1,2,,
B03249P,,Ruko Molek,,-6.284483,106.90799,1,,0,2,,
B03252P,,Ruko Permata Senayan 1,,-6.219856,106.79176,1,,0,2,,
B03253P,,Ruko Permata Senayan 2,,-6.22148,106.79111,1,,0,2,,
B03261P,,Ruko Taman Kb. Jeruk,,-6.197388,106.74818,1,,0,2,,
B03265P,,Rumah Sipitung,,-6.100075,106.96054,1,,0,2,,
B03266P,,Rusun Benhil,,-6.201418,106.80789,1,,0,2,,
B03270P,,Rusun Cipinang Besar Selatan,,-6.231625,106.88288,1,,0,2,,
B03274P,,Rusun Jatinegara Barat,,-6.223016,106.86585,1,,0,2,,
B03276P,,Rusun Jatinegara Kaum Depan,,-6.212768,106.89945,1,,0,2,,
B03277P,,Rusun Kapuk Muara,,-6.135667,106.76299,1,,0,2,,
G00021,,Dukuh Atas,,-6.205627,106.822295,1,,0,0,H00047P,A-B-C
B03280P,,Rusun Klender,,-6.216567,106.92868,1,,0,2,,
B03282P,,Rusun Marunda,,-6.097099,106.96231,1,,0,2,,
B03283P,,Rusun Marunda 1,,-6.098204,106.96232,1,,0,2,,
B03284P,,Rusun Marunda 2,,-6.09826,106.96218,1,,0,2,,
B03285P,,Rusun Penjaringan,,-6.130702,106.79487,1,,0,2,,
B03286P,,Rusun Pesakih,,-6.161468,106.71698,1,,0,2,,
B03289P,,Rusun Pondok Bambu,,-6.241583,106.91085,1,,0,2,,
B03291P,,Rusun Rawa Bebek,,-6.196241,106.9658,1,,0,2,,
B03292P,,Rusun Rempoa,,-6.261641,106.7666,1,,0,2,,
B03296P,,Rusun Tanah Abang 1,,-6.192314,106.81481,1,,0,2,,
B03297P,,Rusun Tanah Abang 2,,-6.192171,106.81474,1,,0,2,,
B03299P,,Rusun Waduk Pluit,,-6.111456,106.80022,1,,0,2,,
B03304P,,Saharjo UGM,,-6.214596,106.84427,1,,0,2,,
B03305P,,Sahid Sudirman Center,,-6.211191,106.81794,1,,0,2,,
B03307P,,Sampoerna Strategic,,-6.217152,106.81892,1,,0,2,,
B03308P,,Samsat BSD,,-6.291005,106.6658,1,,0,2,,
B03309P,,Sangrila Indah 2,,-6.237493,106.75906,1,,0,2,,
B03310P,,Santa Maria,,-6.21939,106.86445,1,,0,2,,
B03311P,,Santo Lukas,,-6.244763,106.84319,1,,0,2,,
B03312P,,Sari Pan Pacific,,-6.185037,106.82325,1,,0,2,,
B03313P,,MH Thamrin 1,,-6.188081,106.82317,1,,0,2,,
B03314P,,MH Thamrin 2,,-6.188238,106.82277,1,,0,2,,
B03315P,,MH Thamrin 3,,-6.187125,106.82378,1,,0,2,,
B03318P,,Sawo Kecik Raya,,-6.224852,106.85489,1,,0,2,,
B03319P,,SD 01 Taman Mpu Sendok,,-6.231785,106.81025,1,,0,2,,
B03322P,,SD Diakonia 1,,-6.112155,106.7893,1,,0,2,,
H00269P,,St. Palmerah,,-6.208908,106.79706,1,,1,2,,
B03325P,,SD Jatinegara Kaum,,-6.19781,106.90496,1,,0,2,,
B03327P,,SD Kartika X-2,,-6.25388,106.75637,1,,0,2,,
B03328P,,SD Kartika X-4,,-6.259431,106.75611,1,,0,2,,
B03331P,,SD Santa Maria Gambir,,-6.167007,106.82442,1,,0,2,,
B03298P,,Rusun Tipar Cakung,,-6.171493,106.93731,1,,0,2,,
B03323P,,SD Diakonia 2,,-6.112346,106.78905,1,,0,2,,
B03343P,,SDN Cengkareng Timur 05,,-6.149212,106.72804,1,,0,2,,
B03350P,,SDN Cilandak Timur 01,,-6.306334,106.81391,1,,0,2,,
B03369P,,SDN Gunung Sahari 01,,-6.166112,106.8417,1,,0,2,,
B03377P,,SDN Johar Baru 10,,-6.181262,106.86023,1,,0,2,,
B03395P,,Pal Batu 3,,-6.225075,106.84149,1,,0,2,,
B03399P,,SDN Meruya Utara 03 04,,-6.194736,106.75583,1,,0,2,,
H00209S,,Kota Bambu Arah Selatan,,-6.185221,106.79709,1,,1,2,,
B03405P,,SDN Penggilingan,,-6.205255,106.93004,1,,0,2,,
B03406P,,SDN Penjaringan,,-6.12527,106.80272,1,,0,2,,
B03407P,,SDN Penjaringan 3,,-6.12509,106.80254,1,,0,2,,
B03408P,,SDN Pesanggrahan 10,,-6.259714,106.75688,1,,0,2,,
B03413P,,SDN Pondok Jagung 1,,-6.256261,106.65132,1,,0,2,,
B03414P,,SDN Pondok Jagung 2,,-6.256133,106.65144,1,,0,2,,
B03415P,,SDN Pondok Kelapa 05,,-6.240583,106.9428,1,,0,2,,
B03426P,,SDN Srengseng Sawah 01,,-6.332965,106.8338,1,,0,2,,
B03427P,,SDN Srengseng Sawah 07,,-6.345273,106.83064,1,,0,2,,
B03430P,,SDN Sukasari Enam 1,,-6.189785,106.6419,1,,0,2,,
B03431P,,SDN Sukasari Enam 2,,-6.189308,106.64182,1,,0,2,,
H00224S,,Kemanggisan Arah Selatan,,-6.189781,106.79726,1,,1,2,,
B03464P,,Sbr. Bukit Cinere Indah,,-6.33992,106.78012,1,,0,2,,
B03467P,,Sbr. Cakrawala I Gg 2,,-6.112375,106.91529,1,,0,2,,
E00342,,Roxy Akses A,,-6.166096,106.79735,1,,2,0,H00200P,
B03474P,,Sbr. Cilandak KKO,,-6.294056,106.81604,1,,0,2,,
E00072,,CSW Akses F,,-6.239887,106.79809,1,,2,0,H00264P,
B03489P,,Sbr. Duta Merlin,,-6.168488,106.82011,1,,0,2,,
B03492P,,Sbr. Embun Pagi Islamic School,,-6.247844,106.91894,1,,0,2,,
B03504P,,Sbr. Gg. Bali III Kalideres,,-6.15604,106.70369,1,,0,2,,
B03512P,,Sbr. Gg. Borobudur Ragunan,,-6.3068,106.81684,1,,0,2,,
B03516P,,Sbr. Gg. Cemara Cilandak KKO,,-6.299539,106.81463,1,,0,2,,
B03549P,,Sbr. Gg. Musholla Ragunan,,-6.308188,106.81593,1,,0,2,,
B03558P,,Sbr. Gg. Robaya,,-6.333212,106.82825,1,,0,2,,
B03563P,,Sbr. Gg. Saminten,,-6.379273,106.84919,1,,0,2,,
G00022,,Dukuh Atas,,-6.205733,106.822284,1,,0,0,H00047P,D-E-F
G00023,,Dukuh Atas,,-6.205723,106.822182,1,,0,0,H00047P,G-H-J
B03596P,,Sbr. Goethe Institute,,-6.189435,106.83131,1,,0,2,,
B03597P,,Sbr. Golden Fatmawati,,-6.27688,106.79783,1,,0,2,,
B03617P,,Sbr. Heinz Abc Kalideres,,-6.152192,106.70266,1,,0,2,,
B03634P,,Sbr. Jln. Anggrek Srengseng,,-6.198239,106.75622,1,,0,2,,
B03645P,,Sbr. Jln. Bak Air 1,,-6.115009,106.87222,1,,0,2,,
B03647P,,Sbr. Jln. Bambu II Srengseng,,-6.210918,106.75912,1,,0,2,,
B03652P,,Sbr. Jln. Beo,,-6.256595,106.75966,1,,0,2,,
B03681P,,Sbr. Jln. Damai,,-6.242744,106.90195,1,,0,2,,
B03687P,,Sbr. Jln. Darmajaya Pejaten,,-6.278599,106.84482,1,,0,2,,
B03693P,,Sbr. Jln. Durian I,,-6.236342,106.75756,1,,0,2,,
B03697P,,Sbr. Jln. Flamboyan Srengseng,,-6.201447,106.75576,1,,0,2,,
B03729P,,Sbr. Jln. H. Ung,,-6.165145,106.85231,1,,0,2,,
B03732P,,Sbr. Jln. Industri Tj. Priok,,-6.11859,106.86806,1,,0,2,,
B03735P,,Sbr. Jln. Jomas,,-6.195735,106.75584,1,,0,2,,
B03739P,,Sbr. Jln. Kampung Bali XXXIII,,-6.187046,106.82189,1,,0,2,,
B03741P,,Sbr. Jln. Kampung Baru V,,-6.225077,106.76062,1,,0,2,,
B03742P,,Sbr. Jln. Kampung Baru VII,,-6.223256,106.76062,1,,0,2,,
B03743P,,Sbr. Jln. Kampung Utan,,-6.301788,106.8143,1,,0,2,,
B03745P,,Sbr. Jln. Kapuk II,,-6.215699,106.9002,1,,0,2,,
B03749P,,Sbr. Jln. Kemang II,,-6.256487,106.8149,1,,0,2,,
B03750P,,Sbr. Jln. Kemang Selatan VIII,,-6.268532,106.8157,1,,0,2,,
B03751P,,Sbr. Jln. Kemang Timur XI,,-6.265417,106.8238,1,,0,2,,
B03753P,,Sbr. Jln. KH Hasim,,-6.185551,106.73182,1,,0,2,,
E00041,,Bundaran Senayan Akses A,,-6.227252,106.80132,1,,2,1,H00023P,
B03772P,,Sbr. Jln. Makam,,-6.238208,106.77737,1,,0,2,,
P00017,,Blok M,,-6.243312,106.80175,1,,0,2,H00014P,
H00014P,,Blok M,,-6.243312,106.80175,1,,1,2,,
G00024,,Dukuh Atas,,-6.205621,106.822203,1,,0,0,H00047P,K-L-M
B03810P,,Sbr. Jln. Pangkalan Jati VI,,-6.254277,106.90966,1,,0,2,,
B03815P,,Sbr. Jln. Perdana I,,-6.243081,106.75677,1,,0,2,,
G00025,,Tosari,,-6.19696,106.823062,1,,0,1,H00251P,A-B-C
B03830P,,Sbr. Jln. Salak Pesanggrahan,,-6.251278,106.75643,1,,0,2,,
B03860P,,Sbr. Jln. Swakarsa III,,-6.244765,106.94258,1,,0,2,,
B03870P,,Sbr. Jln. Tebet Utara III,,-6.225521,106.85245,1,,0,2,,
B03871P,,Sbr. Jln. Tebet Utara IV,,-6.227398,106.85274,1,,0,2,,
B03883P,,Sbr. Jembatan Pintu Satu,,-6.300665,106.88386,1,,0,2,,
B03884P,,Sbr. Jembatan Serong,,-6.182357,106.81818,1,,0,2,,
B03890P,,Sbr. Kantor Pos Jaktim,,-6.193429,106.90105,1,,0,2,,
B03892P,,Sbr. KBN Sukapura,,-6.143455,106.92204,1,,0,2,,
B03901P,,Sbr. Kec. Kelapa Gading,,-6.16233,106.90768,1,,0,2,,
B03905P,,Sbr. Kec. Pasar Minggu,,-6.285526,106.83549,1,,0,2,,
B03908P,,Sbr. Kel. Bintaro,,-6.272947,106.76394,1,,0,2,,
B03932P,,Sbr. Kel. Serdang,,-6.159149,106.85558,1,,0,2,,
B03933P,,Sbr. Kel. Srengseng,,-6.203332,106.75689,1,,0,2,,
H00007P,,Bandengan,,-6.136318,106.80347,1,,1,2,,
G00026,,Tosari,,-6.196848,106.823056,1,,0,1,H00251P,D-E-F
B03955P,,Sbr. Kodam Bintaro,,-6.259531,106.75878,1,,0,2,,
B03963P,,Sbr. Komplek Ddn Bintara Jaya,,-6.242397,106.94263,1,,0,2,,
B03968P,,Sbr. Komplek Dolog Jaya,,-6.248114,106.91592,1,,0,2,,
B03974P,,Sbr. Komplek Kodam Jaya,,-6.197871,106.77108,1,,0,2,,
B03978P,,Sbr. Komplek Pertambangan Kelapa Dua,,-6.216617,106.77072,1,,0,2,,
B03985P,,Sbr. Koramil Pondok Gede,,-6.282825,106.91394,1,,0,2,,
B03988P,,Sbr. KPP Pratama Tanah Abang Satu,,-6.202037,106.80707,1,,0,2,,
B03992P,,Sbr. Kuningan Place,,-6.213158,106.83499,1,,0,2,,
B04016P,,Sbr. Manhattan Hotel,,-6.225591,106.83013,1,,0,2,,
B04054P,,Sbr. Masjid Jami Al Badariah Kemayoran,,-6.1533,106.85895,1,,0,2,,
B04075P,,Sbr. Masjid Nurul Iman Kubur Batu,,-6.197464,106.74467,1,,0,2,,
B04109P,,Sbr. Multivision Tower,,-6.212375,106.83303,1,,0,2,,
B07477P,,Jln. Cibulan Raya,,-6.241672,106.810223,1,,0,2,,
B04132P,,Sbr. Ps. Blok A,,-6.248294,106.79779,1,,0,2,,
B04136P,,Sbr. Ps. Cengkareng,,-6.151851,106.72708,1,,0,2,,
B04146P,,Sbr. Ps. Inpres Cipinang Besar,,-6.226687,106.88059,1,,0,2,,
B04157P,,Sbr. Ps. Klender,,-6.21293,106.900747,1,,0,2,,
B04185P,,Sbr. Pemakaman Kramat Mengkok,,-6.138935,106.92196,1,,0,2,,
H00079P,,Transjakarta Tanah Abang 1,,-6.185496,106.81105,1,,1,2,,
B04117P,,Sbr. Mutiara Taman Palem 1,,-6.136725,106.73137,1,,0,2,,
B04201P,,Sbr. Pesona Square,,-6.379679,106.84426,1,,0,2,,
B04202P,,Sbr. PGP,,-6.203448,106.93456,1,,0,2,,
B04209P,,Sbr. Plaza Kemang 88,,-6.270024,106.81553,1,,0,2,,
B04215P,,Sbr. Polsek Ciracas,,-6.290414,106.87138,1,,0,2,,
B04225P,,Sbr. Pondok Kelapa Indah,,-6.247668,106.92134,1,,0,2,,
B04226P,,Sbr. Pondok Kelapa Indah 2,,-6.247643,106.92236,1,,0,2,,
B04231P,,Sbr. Port Medical Center,,-6.109966,106.88934,1,,0,2,,
B04238P,,Sbr. Pospol PIK Penggilingan,,-6.203474,106.93242,1,,0,2,,
B04239P,,Sbr. PPKD Jaktim,,-6.247603,106.94229,1,,0,2,,
B04263P,,Sbr. Puskesmas Setiabudi,,-6.206882,106.83363,1,,0,2,,
B04279P,,Sbr. RS Dr Suyoto,,-6.267609,106.7659,1,,0,2,,
E00138,,Jak Lingko Tanah Abang Akses A,,-6.184257,106.81122,1,,2,0,H00079P,
B04282P,,Sbr. RS Haji Jakarta,,-6.290475,106.88914,1,,0,2,,
B04286P,,Sbr. RS Marinir Cilandak,,-6.305692,106.81404,1,,0,2,,
B04289P,,Sbr. RS Mitra Keluarga Kalideres,,-6.149421,106.70268,1,,0,2,,
B04290P,,Sbr. RS Moh Ridwan Meuraksa,,-6.294767,106.88167,1,,0,2,,
B04301P,,Sbr. RSUD Tanah Abang,,-6.191139,106.81506,1,,0,2,,
B04311P,,Sbr. Ruko Moh Kahfi II,,-6.335886,106.82713,1,,0,2,,
B04314P,,Sbr. Rumkitban Bintaro,,-6.258342,106.75628,1,,0,2,,
B04318P,,Sbr. Sangrila Indah,,-6.237318,106.75925,1,,0,2,,
B04320P,,Sbr. SD Kartika X-2,,-6.25399,106.75647,1,,0,2,,
B04321P,,Sbr. SD Kartika X-4,,-6.259265,106.75617,1,,0,2,,
B01793P,,Kali Besar Barat 1,,-6.135487,106.81131,1,,0,2,,
H00093P,,Kali Besar,,-6.135355,106.81143,1,,1,0,,
B04344P,,Sbr. SDN Johar Baru 10,,-6.181178,106.86028,1,,0,2,,
B04363P,,Sbr. SDN Pondok Kelapa 05,,-6.240433,106.94276,1,,0,2,,
G00027,,Tosari,,-6.196742,106.823051,1,,0,1,H00251P,G-H-J
B04379P,,Sbr. Sekolah Avicenna Jagakarsa,,-6.336338,106.82992,1,,0,2,,
E00090,,Explorer Tanah Abang Akses A,,-6.18433,106.81147,1,,2,0,H00052P,
B04401P,,Sbr. Sekolah Yanindo Jakarta,,-6.119485,106.86672,1,,0,2,,
H00052P,,Explorer Tanah Abang,,-6.184305,106.81158,1,,1,2,,
G00028,,Tosari,,-6.196742,106.823115,1,,0,1,H00251P,K-L-M
B04423P,,Sbr. SMAN 38,,-6.335833,106.83481,1,,0,2,,
B04435P,,Sbr. SMAN 85,,-6.215296,106.75997,1,,0,2,,
B04439P,,Sbr. SMK Al Hidayah 1,,-6.308208,106.81387,1,,0,2,,
B04443P,,Sbr. SMK Kartika X-2,,-6.252352,106.75638,1,,0,2,,
B04447P,,Sbr. SMK Satria Srengseng,,-6.208822,106.75881,1,,0,2,,
B00825P,,Transjakarta Tanah Abang 2,,-6.183885,106.81165,1,,1,2,,
B04476P,,Sbr. SMPN 195,,-6.230919,106.90988,1,,0,2,,
B04485P,,Sbr. SMPN 229,,-6.197581,106.77277,1,,0,2,,
B04487P,,Sbr. SMPN 235,,-6.254607,106.75642,1,,0,2,,
B04489P,,Sbr. SMPN 252,,-6.239289,106.94229,1,,0,2,,
B04500P,,Sbr. SPBU Cilandak KKO,,-6.295925,106.8156,1,,0,2,,
B04502P,,Sbr. SPBU Meruya Ilir,,-6.197275,106.75357,1,,0,2,,
B04505P,,Sbr. Standard Chartered,,-6.217407,106.81934,1,,0,2,,
B04506P,,Sbr. St. Gambir,,-6.177188,106.83139,1,,0,2,,
B04517P,,Sbr. Sunter Icon,,-6.134808,106.85595,1,,0,2,,
B04518P,,Sbr. Swadaya Raya,,-6.228578,106.91633,1,,0,2,,
B04519P,,Sbr. Taman Asem PPSU,,-6.117057,106.86973,1,,0,2,,
B04521P,,Sbr. Taman BMW,,-6.12629,106.85763,1,,0,2,,
B04534P,,Sbr. Taman Permata Indah 1,,-6.144081,106.78154,1,,0,2,,
B04544P,,Sbr. Term. Kampung Rambutan,,-6.306068,106.88003,1,,0,2,,
B04548P,,Sbr. The Pakubuwono Menteng,,-6.187149,106.8263,1,,0,2,,
B04549P,,Sbr. The Wave,,-6.214426,106.8363,1,,0,2,,
B04556P,,Sbr. TK Kartika VIII -13,,-6.345264,106.82746,1,,0,2,,
B04558P,,Sbr. TK Rahmania Ragunan,,-6.316147,106.81651,1,,0,2,,
B04565P,,Sbr. TPU Karet Bivak,,-6.201088,106.81384,1,,0,2,,
B01261P,,Jln. Kemang 1,,-6.255574,106.8118,1,,0,2,,
B04582P,,Sbr. Villa Ampera,,-6.273031,106.81562,1,,0,2,,
B04584P,,Sbr. Waduk Pluit,,-6.113824,106.79461,1,,0,2,,
B04588P,,Sbr. Yamaha Music School Kemang,,-6.262756,106.82364,1,,0,2,,
B04610P,,Sekolah Al Huda 1,,-6.149731,106.72736,1,,0,2,,
B04623P,,Sekolah Cahaya Sakti Otista I,,-6.225391,106.86708,1,,0,2,,
B04625P,,Sekolah Cita Buana,,-6.316189,106.81425,1,,0,2,,
B04629P,,Sekolah Fadlurrahman,,-6.271179,106.91207,1,,0,2,,
B04644P,,Sekolah Pami Jaya,,-6.248519,106.92513,1,,0,2,,
B04658P,,Sekolah Sumbangsih,,-6.290013,106.8177,1,,0,2,,
B04663P,,Sekolah Yadika Jatiwaringin,,-6.264039,106.9111,1,,0,2,,
B04664P,,Sekolah Yanindo Jakarta,,-6.119479,106.86699,1,,0,2,,
B04668P,,Sekolahan Kwitang 6 PSKD,,-6.241543,106.79607,1,,0,2,,
B04671P,,Selapa Polri,,-6.286492,106.77119,1,,0,2,,
B04673P,,Senayan,,-6.215918,106.794,1,,0,2,,
B04678P,,Senopati,,-6.230687,106.80809,1,,0,2,,
G00029,,Tosari,,-6.196848,106.823126,1,,0,1,H00251P,N-P-R
B04684P,,Seskoal 1,,-6.238155,106.77231,1,,0,2,,
B04685P,,Seskoal 2,,-6.238015,106.77247,1,,0,2,,
B04686P,,Setiabudi Utara 2,,-6.207513,106.8294,1,,0,2,,
B04697P,,Simpang Akses Pitungan,,-6.107847,106.95986,1,,0,2,,
B04704P,,Simpang Anggrek VII Rosliana,,-6.194404,106.79337,1,,0,2,,
B04708P,,Simpang Arteri Kebayoran Lama,,-6.219148,106.77902,1,,0,2,,
B04652P,,Sekolah Pusaka,,-6.236888,106.89838,1,,0,2,,
B04643P,,Sekolah Pah Tsung,,-6.136693,106.73785,1,,0,2,,
B04682P,,Sentraland Cengkareng,,-6.139078,106.739378,1,,0,2,,
B01638P,,Jln. Taman Jatibaru Timur,,-6.182778,106.8129,1,,0,2,,
B04729P,,Simpang Blok E,,-6.184488,106.81525,1,,0,2,,
B04732P,,Simpang Bren Howitzer Raya,,-6.163713,106.87047,1,,0,2,,
B04735P,,Simpang Budi Sakti Raya,,-6.188377,106.78328,1,,0,2,,
B04765P,,Simpang Cilandak KKO Margasatwa,,-6.310312,106.81375,1,,0,2,,
B04789P,,Simpang Danau Sunter Utara Barat,,-6.139853,106.85663,1,,0,2,,
B04790P,,Simpang Darmawangsa X,,-6.257555,106.80048,1,,0,2,,
B04798P,,Simpang Dharmawangsa VIII,,-6.253614,106.80792,1,,0,2,,
B04799P,,Simpang Dinkes,,-6.170376,106.81543,1,,0,2,,
B04801P,,Simpang Duren Bangka Timur,,-6.259343,106.82777,1,,0,2,,
B04803P,,Simpang Fatmawati,,-6.291232,106.79533,1,,0,2,,
B04808P,,Simpang Gandaria Kyai Maja,,-6.24186,106.79,1,,0,2,,
B04820P,,Simpang Gunung Sahari III,,-6.167903,106.84174,1,,0,2,,
E00355,,Semanggi Akses A,,-6.22193,106.81377,1,,2,0,H00027C,
B07468P,,Jln. Bangka VII,,-6.249515,106.81458,1,,0,2,,
B04871P,,Simpang Jln. Peta Selatan,,-6.145305,106.70275,1,,0,2,,
B04887P,,Simpang Kali Besar Barat,,-6.136879,106.812169,1,,0,2,,
B04891P,,Simpang Kalimalang,,-6.245523,106.90507,1,,0,2,,
B04897P,,Simpang Kampung Jembatan 1,,-6.208642,106.93576,1,,0,2,,
B04898P,,Simpang Kampung Jembatan 2,,-6.208426,106.93576,1,,0,2,,
B04907P,,Simpang Kawi Raya,,-6.209476,106.83322,1,,0,2,,
B04922P,,Simpang Kemang 1,,-6.25803,106.81504,1,,0,2,,
B04924P,,Simpang Kemang Selatan 1,,-6.274242,106.82066,1,,0,2,,
B07483P,,Sbr. Jln. Bangka VII,,-6.249515,106.814652,1,,0,2,,
B04926P,,Simpang Kemang Timur Utara,,-6.258729,106.82311,1,,0,2,,
B04927P,,Simpang Kemang Utara IX,,-6.257808,106.82444,1,,0,2,,
B04928P,,Simpang Kemang Utara Timur,,-6.258318,106.8231,1,,0,2,,
B04944P,,Simpang KH Hasyim Cideng Barat,,-6.166007,106.81033,1,,0,2,,
B04947P,,Simpang Kodam Bintaro Permai,,-6.259127,106.75974,1,,0,2,,
B04949P,,Simpang Kopi Bandengan Selatan,,-6.135839,106.80689,1,,0,2,,
B04950P,,Simpang Kopi Kali Besar Barat,,-6.134507,106.81106,1,,0,2,,
B04951P,,Simpang Kopi Roa Malaka,,-6.134185,106.80986,1,,0,2,,
B04886P,,Simpang JORR,,-6.183114,106.93845,1,,0,2,,
B04933P,,Simpang Kembangan Selatan,,-6.184495,106.72967,1,,0,2,,
B04962P,,Simpang Kunir Kemukus,,-6.133731,106.81475,1,,0,2,,
B04964P,,Simpang Lagoa Ciampea,,-6.108978,106.9077,1,,0,2,,
E00226,,Taman Sari Akses A,,-6.148846,106.81632,1,,2,0,H00133P,
B01208P,,Jln. Karet Pasar Baru Timur II,,-6.203949,106.81636,1,,0,2,,
B04976P,,Simpang Mabes Hankam,,-6.304878,106.88646,1,,0,2,,
E00468,,Widya Chandra Telkomsel Arah Barat Akses B,,-6.227252,106.817402,1,,2,2,H00137S,
B04989P,,Simpang Mandara Permai 1,,-6.116358,106.75672,1,,0,2,,
B04990P,,Simpang Mandara Permai 2,,-6.116512,106.75622,1,,0,2,,
B04997P,,Simpang Margasatwa Cilandak KKO,,-6.31022,106.81364,1,,0,2,,
B05002P,,Simpang Matraman,,-6.200005,106.85347,1,,0,2,,
B05003P,,Simpang Matraman 2,,-6.201601,106.85144,1,,0,2,,
B05009P,,Simpang Meruya Ilir 1,,-6.196682,106.75517,1,,0,2,,
B05010P,,Simpang Meruya Ilir 2,,-6.196802,106.75542,1,,0,2,,
B05014P,,Simpang Meruya Panjang Arteri,,-6.196626,106.76887,1,,0,2,,
B05024P,,Simpang Pahlawan Revolusi 2,,-6.238373,106.89937,1,,0,2,,
B05028P,,Simpang Pakin 3,,-6.129076,106.80514,1,,0,2,,
G00030,,Tosari,,-6.19695,106.823131,1,,0,1,H00251P,S-T-U
B05036P,,Simpang Panjang Kb. Jeruk 1,,-6.198159,106.76922,1,,0,2,,
B05037P,,Simpang Panjang Kb. Jeruk 2,,-6.19808,106.76938,1,,0,2,,
B05038P,,Simpang Ps. Bebek 1,,-6.11034,106.94875,1,,0,2,,
B05039P,,Simpang Ps. Bebek 2,,-6.110133,106.94875,1,,0,2,,
B00035P,,Ampera 1,,-6.292069,106.81774,1,,0,2,,
E00466,,Widya Chandra Telkomsel Arah Timur Akses A,,-6.22682,106.817782,1,,2,2,H00120S,
B05054P,,Simpang Patra Lontar Raya,,-6.182359,106.78119,1,,0,2,,
B05063P,,Simpang Perintis 1,,-6.229048,106.88882,1,,0,2,,
B01836P,,Karet Sudirman 2,,-6.213105,106.81936,1,,0,2,,
B05078P,,Simpang Pitungan,,-6.100212,106.9606,1,,0,2,,
B05080P,,Simpang Pluit Raya,,-6.127123,106.80441,1,,0,2,,
B05084P,,Simpang Pondok Bambu Batas 3,,-6.241251,106.90098,1,,0,2,,
B05085P,,Simpang Pondok Bambu Batas 4,,-6.241275,106.90108,1,,0,2,,
B05096P,,Simpang Radin Inten II Kalimalang,,-6.247574,106.92049,1,,0,2,,
B05099P,,Simpang Rawa Barat,,-6.238408,106.81489,1,,0,2,,
B07496P,,Gg. Datuk,,-6.341592,106.819427,1,,0,2,,
B05110P,,Simpang Raya Bogor Cililitan,,-6.264191,106.86585,1,,0,2,,
B05120P,,Simpang Raya Pondok Gede 1,,-6.284753,106.91028,1,,0,2,,
B05121P,,Simpang Raya Pondok Gede 2,,-6.283372,106.91042,1,,0,2,,
B05128P,,Simpang RP Soeroso,,-6.191004,106.83603,1,,0,2,,
G00031,,Bundaran HI Astra,,-6.193596,106.82306,1,,0,1,H00022P,A-B-C
G00032,,Bundaran HI Astra,,-6.193842,106.823077,1,,0,1,H00022P,D-E-F
G00033,,Bundaran HI Astra,,-6.193838,106.822995,1,,0,1,H00022P,G-H-J
B05155P,,Simpang Srengseng Meruya Ilir 2,,-6.197304,106.75623,1,,0,2,,
B05157P,,Simpang St. Senen,,-6.176376,106.844109,1,,0,2,,
B05158P,,Simpang STIP,,-6.10795,106.95998,1,,0,2,,
G00034,,Bundaran HI Astra,,-6.193601,106.822983,1,,0,1,H00022P,K-L-M
B05165P,,Simpang Sunter Kemayoran Jaya,,-6.153945,106.86067,1,,0,2,,
B05168P,,Simpang Tanah Abang II Cideng,,-6.175292,106.81209,1,,0,2,,
B05170P,,Simpang Tanah Tinggi Timur,,-6.174437,106.85231,1,,0,2,,
B04925P,,Simpang Kemang Selatan 2,,-6.274106,106.82045,1,,0,2,,
B05179P,,Simpang Tarakan Cideng Barat,,-6.170569,106.81074,1,,0,2,,
B01834P,,Karet Pedurenan 2,,-6.221462,106.82109,1,,0,2,,
B05186P,,Simpang Tebet Barat Raya,,-6.23012,106.85121,1,,0,2,,
B05187P,,Simpang Tebet Raya Barat,,-6.23023,106.85145,1,,0,2,,
B02501P,,Museum Nasional,,-6.176403,106.82263,1,,0,2,,
B05190P,,Simpang Tebet Raya Utara,,-6.229717,106.85244,1,,0,2,,
B05200P,,Simpang Tiga 1,,-6.210708,106.93903,1,,0,2,,
B05201P,,Simpang Tiga 2,,-6.210983,106.93935,1,,0,2,,
B05202P,,Simpang Tiga Pulo Gebang Raya,,-6.206982,106.95468,1,,0,2,,
B05192P,,Simpang Tebet Utara Dalam Raya,,-6.228727,106.85482,1,,0,2,,
B05223P,,Simprug 1,,-6.223678,106.7902,1,,0,2,,
B05224P,,Simprug 2,,-6.225306,106.78929,1,,0,2,,
B05226P,,Sinarmas Land,,-6.277996,106.6612,1,,0,2,,
B05228P,,Singgalang,,-6.236849,106.78782,1,,0,2,,
B05232P,,Situ Gintung 1,,-6.300534,106.76234,1,,0,2,,
B05233P,,Situ Gintung 2,,-6.301629,106.76139,1,,0,2,,
H00267S,,Kebon Sirih Arah Utara,,-6.182776,106.8228,1,,1,0,,
B05236P,,Slamet Riyadi 2,,-6.207639,106.85911,1,,0,2,,
B05245P,,SMA Budi Utomo,,-6.167046,106.838,1,,0,2,,
B05248P,,SMA Kartika,,-6.260596,106.75896,1,,0,2,,
B05249P,,SMA Kartika X-1,,-6.26069,106.75891,1,,0,2,,
B05252P,,SMAK Penabur Enam 1,,-6.114247,106.77389,1,,0,2,,
B05253P,,SMAK Penabur Enam 2,,-6.115644,106.77506,1,,0,2,,
B05256P,,SMAN 100,,-6.228401,106.88494,1,,0,2,,
B05257P,,SMAN 104,,-6.302703,106.85941,1,,0,2,,
B05259P,,SMAN 109,,-6.344687,106.83351,1,,0,2,,
G00035,,MH Thamrin,,-6.188043,106.823051,1,,0,1,H00207P,A-B-C
B05264P,,SMAN 24,,-6.210598,106.79631,1,,0,2,,
B05265P,,SMAN 28,,-6.286109,106.83318,1,,0,2,,
B05275P,,SMAN 61,,-6.236929,106.89823,1,,0,2,,
B05276P,,SMAN 65,,-6.200842,106.76904,1,,0,2,,
B05281P,,SMAN 84,,-6.144834,106.70458,1,,0,2,,
G00036,,MH Thamrin,,-6.188262,106.82304,1,,0,1,H00207P,D-E-F
B05287P,,SMK Al Hidayah 1,,-6.30829,106.81377,1,,0,2,,
B05291P,,SMK Darussalam,,-6.319946,106.74598,1,,0,2,,
B05293P,,SMK Jakarta 1,,-6.147207,106.70267,1,,0,2,,
B05295P,,SMK Kartika X-2,,-6.252716,106.75631,1,,0,2,,
B05300P,,SMK Ristek Kikin,,-6.206887,106.93519,1,,0,2,,
B05303P,,SMK Satria Srengseng,,-6.208852,106.75889,1,,0,2,,
B05304P,,SMK Swadaya Global School,,-6.247161,106.91976,1,,0,2,,
B05311P,,SMKN 28,,-6.284944,106.79578,1,,0,2,,
B05313P,,SMKN 32,,-6.22951,106.8493,1,,0,2,,
B05315P,,SMKN 38,,-6.181971,106.8174,1,,0,2,,
B05318P,,SMKN 48,,-6.219401,106.92361,1,,0,2,,
B05323P,,SMKN 54,,-6.155175,106.86089,1,,0,2,,
B05324P,,SMKN 56,,-6.119094,106.79423,1,,0,2,,
B05340P,,SMPN 115,,-6.225709,106.85488,1,,0,2,,
B05342P,,SMPN 124,,-6.258975,106.82624,1,,0,2,,
B05344P,,SMPN 127,,-6.198939,106.7783,1,,0,2,,
B05350P,,SMPN 14,,-6.214718,106.86485,1,,0,2,,
B05358P,,SMPN 177,,-6.261215,106.75713,1,,0,2,,
B05361P,,SMPN 188,,-6.307289,106.87793,1,,0,2,,
B05372P,,SMPN 229,,-6.19752,106.77284,1,,0,2,,
E00419,,Tosari Lama Akses A,,-6.197763,106.82299,1,,2,0,H00274P,
B05378P,,SMPN 252,,-6.239351,106.94234,1,,0,2,,
B05384P,,SMPN 43,,-6.240281,106.82639,1,,0,2,,
B05387P,,SMPN 6 Bekasi,,-6.28259,106.91272,1,,0,2,,
B05389P,,SMPN 78,,-6.173538,106.85226,1,,0,2,,
B05391P,,SMPN 8,,-6.201167,106.84291,1,,0,2,,
B05296P,,SMK Karya Teladan,,-6.258596,106.84351,1,,0,2,,
E00447,,Tosari Akses A,,-6.197763,106.82299,1,,2,1,H00251P,
B05394P,,SMPN 85,,-6.31244,106.79533,1,,0,2,,
B05397P,,SMU 79,,-6.225412,106.83865,1,,0,2,,
B05399P,,South City Cinere,,-6.34504,106.767638,1,,0,2,,
B05401P,,SPBG Jakpro,,-6.117747,106.79188,1,,0,2,,
B05403P,,SPBU Bintaro Pondok Betung,,-6.261488,106.75659,1,,0,2,,
B05404P,,SPBU Cilandak KKO,,-6.29585,106.81551,1,,0,2,,
B05405P,,SPBU Gedong Panjang,,-6.130757,106.80557,1,,0,2,,
G00037,,MH Thamrin,,-6.188262,106.822938,1,,0,1,H00207P,G-H-J
B05409P,,SPBU Limo Cinere,,-6.343345,106.77832,1,,0,2,,
B05413P,,SPBU Pinang Ranti 2,,-6.291064,106.88845,1,,0,2,,
B05416P,,SPBU Shell Rempoa,,-6.265358,106.76615,1,,0,2,,
B05418P,,SPBU Srengseng Raya,,-6.218822,106.76037,1,,0,2,,
B05423P,,Viva Futsal,,-6.218724,106.81944,1,,0,2,,
B05425P,,St. Blok A Dharmawangsa,,-6.254652,106.79733,1,,0,2,,
B05426P,,St. Blok A Petogogan,,-6.254711,106.79713,1,,0,2,,
B05431P,,St. Cikini Barat,,-6.199614,106.84183,1,,0,2,,
B05432P,,St. Cikini Selatan,,-6.200967,106.84287,1,,0,2,,
B05433P,,Pegangsaan Timur,,-6.199263,106.84205,1,,0,2,,
B05434P,,St. Cipete Raya 1,,-6.278374,106.79746,1,,0,2,,
B05435P,,St. Cipete Raya 2,,-6.278423,106.79716,1,,0,2,,
B05437P,,St. Duren Kalibata 1,,-6.255579,106.85422,1,,0,2,,
B05441P,,St. Gambir 1,,-6.178206,106.83152,1,,0,2,,
B05445P,,St. Gondangdia 2,,-6.185054,106.8323,1,,0,2,,
B05453P,,St. Karet,,-6.200377,106.81546,1,,0,2,,
B05454P,,St. Kebayoran,,-6.239001,106.78198,1,,0,2,,
G00038,,MH Thamrin,,-6.188038,106.82296,1,,0,1,H00207P,K-L-M
B05460P,,St. Klender Muka,,-6.212928,106.89948,1,,0,2,,
B05463P,,St. Lenteng Agung 1,,-6.330883,106.83542,1,,0,2,,
B05469P,,St. LRT Boulevard Utara 1,,-6.159158,106.90631,1,,0,2,,
B05470P,,St. LRT Boulevard Utara 2,,-6.159539,106.90573,1,,0,2,,
B05473P,,St. LRT Pegangsaan Dua,,-6.156857,106.91386,1,,0,2,,
B05482P,,St. MRT Asean 1,,-6.23844,106.79858,1,,0,2,,
B05488P,,St. MRT Fatmawati,,-6.292589,106.7936,1,,0,2,,
B05438P,,St. Duren Kalibata 2,,-6.256101,106.855806,1,,0,2,,
B05411P,,SPBU Meruya Ilir,,-6.197309,106.753939,1,,0,2,,
B05390P,,SMPN 79,,-6.157289,106.856804,1,,0,2,,
B05485P,,St. MRT Blok M 1,,-6.245156,106.798264,1,,0,2,,
B05492P,,St. MRT Lebak Bulus,,-6.289421,106.77436,1,,0,2,,
B05494P,,St. Pasar Minggu 1,,-6.283156,106.84468,1,,0,2,,
B05464P,,St. Lenteng Agung 2,,-6.331342,106.83467,1,,0,2,,
B05497P,,St. Pasar Senen,,-6.175825,106.84456,1,,0,2,,
G00039,,Kebon Sirih Arah Utara,,-6.182776,106.8228,1,,0,0,H00267S,A-B-C
B05502P,,St. Sudirman 2,,-6.201883,106.82277,1,,0,2,,
B05506P,,St. Tanah Tinggi 1,,-6.175601,106.6465,1,,0,2,,
B05507P,,St. Tanah Tinggi 2,,-6.175459,106.64576,1,,0,2,,
B05509P,,St. Tj. Barat 2,,-6.307681,106.8386,1,,0,2,,
B05510P,,St. Tebet 1,,-6.225576,106.85862,1,,0,2,,
G00040,,Kebon Sirih Arah Selatan,,-6.184195,106.823232,1,,0,0,H00268S,A-B-C
B05512P,,St. Tebet 3,,-6.225604,106.85923,1,,0,2,,
G00041,,Monumen Nasional,,-6.176246,106.822804,1,,0,1,H00131P,N-P-R
G00042,,Monumen Nasional,,-6.176252,106.822922,1,,0,1,H00131P,D-E-F
B05518P,,Stella Maris 1,,-6.112083,106.79282,1,,0,2,,
B05519P,,Stella Maris 2,,-6.112308,106.79234,1,,0,2,,
B05520P,,STIAMI 1,,-6.377387,106.83318,1,,0,2,,
B05521P,,STIAMI 2,,-6.377369,106.83281,1,,0,2,,
B05526P,,STIE Trianandra,,-6.226176,106.89875,1,,0,2,,
H00268S,,Kebon Sirih Arah Selatan,,-6.184195,106.823232,1,,1,0,,
B05530P,,STIP,,-6.104402,106.95904,1,,0,2,,
B05532P,,STM Cendrawasih,,-6.216418,106.77393,1,,0,2,,
B05533P,,STM Mandiri,,-6.389279,106.82612,1,,0,2,,
B05534P,,STMIK Jakarta,,-6.257157,106.78985,1,,0,2,,
B05535P,,STMT Trisakti 1,,-6.231933,106.87782,1,,0,2,,
B05536P,,STMT Trisakti 2,,-6.231981,106.8777,1,,0,2,,
B05538P,,STPDN,,-6.28439,106.81899,1,,0,2,,
B05539P,,STT PLN,,-6.168512,106.72742,1,,0,2,,
B05540P,,Sudin Kebersihan Senen,,-6.168882,106.84355,1,,0,2,,
B05549P,,Sunter Boulevard Barat 1,,-6.149527,106.88866,1,,0,2,,
B05550P,,Sunter Icon,,-6.135417,106.85589,1,,0,2,,
B05556P,,Sunter Muara,,-6.144072,106.85763,1,,0,2,,
B05557P,,Sunter Permai Indah 1,,-6.149457,106.88515,1,,0,2,,
B05559P,,Superindo Bulak Kapal 1,,-6.24914,107.02344,1,,0,2,,
B05560P,,Superindo Bulak Kapal 2,,-6.249488,107.02384,1,,0,2,,
B05561P,,Superindo Meruya Ilir,,-6.197636,106.74562,1,,0,2,,
B05563P,,Supriyadi,,-6.308998,106.87046,1,,0,2,,
B05564P,,Surabaya,,-6.201305,106.84116,1,,0,2,,
B05565P,,Sutera Niaga 2,,-6.240488,106.6474,1,,0,2,,
B05566P,,Suzuki,,-6.193509,106.93555,1,,0,2,,
B05567P,,Suzuki Panjang Arteri,,-6.191998,106.76896,1,,0,2,,
B05568P,,Swadaya,,-6.253975,106.83288,1,,0,2,,
B05569P,,Syibi,,-6.350345,106.83272,1,,0,2,,
B05570P,,Taman Anggrek,,-6.17624,106.79281,1,,0,2,,
B05573P,,Taman Asem PPSU Tj. Priok,,-6.117021,106.86998,1,,0,2,,
G00043,,Harmoni,,-6.162769,106.819924,1,,0,1,H00278P,A-B-C
B05579P,,Taman BMW,,-6.125862,106.85843,1,,0,2,,
B05581P,,Taman Buaran Indah,,-6.216979,106.92356,1,,0,2,,
B05584P,,Taman DDN,,-6.312565,106.7965,1,,0,2,,
B05586P,,Taman Duren Sawit,,-6.240353,106.92157,1,,0,2,,
B05587P,,Taman Elok 1,,-6.195743,106.93526,1,,0,2,,
B05588P,,Taman Elok 2,,-6.195679,106.93531,1,,0,2,,
B05523P,,STIE Bisnis,,-6.153634,106.72636,1,,0,2,,
B05597P,,Taman Ismail Marzuki,,-6.19163,106.83847,1,,0,2,,
B05608P,,Taman Kompleks IIAPCO,,-6.271539,106.82286,1,,0,2,,
B05612P,,Taman Lenteng Agung,,-6.322961,106.83569,1,,0,2,,
B05621P,,Taman Margahayu 1,,-6.248137,107.02075,1,,0,2,,
B05622P,,Taman Margahayu 2,,-6.24846,107.02153,1,,0,2,,
B05623P,,Taman Martha Tiahahu,,-6.242892,106.79838,1,,0,2,,
B05624P,,Taman Mataram,,-6.232899,106.80053,1,,0,2,,
B05626P,,Taman Menteng,,-6.195931,106.82884,1,,0,2,,
B05627P,,Taman Menteng 1,,-6.19559,106.82999,1,,0,2,,
B05630P,,Taman Modern 1,,-6.185359,106.94843,1,,0,2,,
B05631P,,Taman Modern 2,,-6.185154,106.94806,1,,0,2,,
B05635P,,Taman Panglima Polim,,-6.251369,106.79751,1,,0,2,,
B05637P,,Taman Patimura,,-6.232872,106.80081,1,,0,2,,
B05640P,,Taman PIK Penggilingan,,-6.2042,106.93176,1,,0,2,,
B05641P,,Taman Puring,,-6.240966,106.78873,1,,0,2,,
B05642P,,Taman Puring 2,,-6.242596,106.78793,1,,0,2,,
B05643P,,Taman Rasuna Tower 10,,-6.218581,106.83599,1,,0,2,,
B05644P,,Taman Rasuna Tower 17,,-6.217105,106.83598,1,,0,2,,
B05648P,,Taman Ria,,-6.213308,106.80236,1,,0,2,,
E00420,,Tosari Lama Akses B,,-6.197631,106.82328,1,,2,0,H00274P,
B05655P,,Taman Sunter,,-6.150072,106.85779,1,,0,2,,
B05656P,,Taman Suropati,,-6.200037,106.83234,1,,0,2,,
B05658P,,Taman Suryo,,-6.233753,106.81265,1,,0,2,,
B05660P,,Taman Ut Aheme,,-6.227704,106.92256,1,,0,2,,
B05661P,,Taman Wahidin,,-6.166873,106.83918,1,,0,2,,
B05663P,,Tamini Square 1,,-6.291762,106.88073,1,,0,2,,
B05666P,,Tanah Abang 2,,-6.181926,106.81409,1,,0,2,,
B05667P,,Tanah Abang AURI,,-6.186064,106.81536,1,,0,2,,
B05668P,,Tanah Abang Blok B,,-6.188459,106.81447,1,,0,2,,
B05671P,,Tanah Koja,,-6.209364,106.90161,1,,0,2,,
B05675P,,Tanah Pasir Gedong Panjang,,-6.129596,106.80506,1,,0,2,,
B05676P,,Tangerang City 2,,-6.19454,106.63475,1,,0,2,,
B05677P,,Tangerang City Mall 1,,-6.194185,106.63605,1,,0,2,,
B05680P,,Tj. Mas Raya,,-6.308428,106.8391,1,,0,2,,
B05649P,,Taman Rosita,,-6.237444,106.84456,1,,0,2,,
B05607P,,Taman Kemang Raya,,-6.255214,106.81045,1,,0,2,,
B05664P,,Tamini Square 2,,-6.291651,106.880938,1,,0,2,,
B05634P,,Taman Pangkalan Jati Kalimalang,,-6.245986,106.905275,1,,0,2,,
B05687P,,Tegal Parang 1,,-6.239791,106.83149,1,,0,2,,
B05688P,,Tegal Parang 2,,-6.238571,106.83054,1,,0,2,,
B05689P,,Tegalan 1,,-6.202401,106.85652,1,,0,2,,
B05690P,,Tegalan 2,,-6.202921,106.85729,1,,0,2,,
B05691P,,Tegalan 3,,-6.204747,106.858,1,,0,2,,
B05693P,,Telkom Grapari,,-6.18222,106.83297,1,,0,2,,
B05695P,,Telkom Tebet,,-6.224064,106.8516,1,,0,2,,
B05696P,,Telkomsel Cempaka Putih,,-6.173603,106.86006,1,,0,2,,
B05697P,,Telkomsel Jln. Nangka,,-6.304254,106.84593,1,,0,2,,
B05698P,,Tempo Scan,,-6.235112,106.82885,1,,0,2,,
B05699P,,Teraskota,,-6.295262,106.66658,1,,0,2,,
B05701P,,Term. BSD,,-6.306375,106.68536,1,,0,2,,
B05702P,,Term. Depok,,-6.39164,106.82466,1,,0,2,,
B05703P,,Term. Depok Baru,,-6.391068,106.82251,1,,0,2,,
B05706P,,Term. Kampung Melayu,,-6.224804,106.86697,1,,0,2,,
B05707P,,Term. Kampung Melayu 2,,-6.224516,106.86685,1,,0,2,,
B05713P,,Term. Muara Angke 1,,-6.109045,106.77353,1,,0,2,,
B05714P,,Term. Muara Angke 2,,-6.109001,106.77349,1,,0,2,,
B05715P,,Term. Pasar Minggu,,-6.283048,106.84371,1,,0,2,,
B05716P,,Term. Pasar Minggu 2,,-6.282492,106.84455,1,,0,2,,
B05718P,,Term. Pinang Ranti,,-6.291029,106.88599,1,,0,2,,
B05720P,,Term. Poris Plawad,,-6.172859,106.66501,1,,0,2,,
B05721P,,Term. Ragunan,,-6.305594,106.8202,1,,0,2,,
B05728P,,Term. Tj. Priok 1,,-6.1098,106.88118,1,,0,2,,
B05730P,,Teuku Cik Ditiro,,-6.200319,106.83741,1,,0,2,,
B05731P,,Teuku Nyak Arief,,-6.2312,106.7892,1,,0,2,,
B05739P,,The Wave,,-6.214587,106.83642,1,,0,2,,
B05740P,,Theresia,,-6.191324,106.82931,1,,0,2,,
B05744P,,Tirtayasa 1,,-6.239279,106.80756,1,,0,2,,
B05745P,,TIS Square,,-6.243169,106.84798,1,,0,2,,
B05746P,,Titan Center,,-6.281076,106.72608,1,,0,2,,
B05751P,,TK Angkasa 8,,-6.285191,106.90125,1,,0,2,,
B05757P,,TK Nurul Ihsan Raya Pulo Gebang,,-6.214198,106.95546,1,,0,2,,
B05763P,,TMII Pintu 3,,-6.30539,106.890202,1,,0,2,,
B05764P,,TMP Kalibata,,-6.255523,106.84561,1,,0,2,,
B05769P,,Tol Bekasi Timur 2,,-6.261696,107.01832,1,,0,2,,
B05771P,,Tol Kb. Jeruk 2,,-6.189835,106.76681,1,,0,2,,
B05774P,,Tosari 2,,-6.198915,106.82295,1,,0,2,,
B05775P,,Tosari 3,,-6.200069,106.82335,1,,0,2,,
B05725P,,Term. Senen,,-6.17356,106.84213,1,,0,2,,
B05685P,,Tebet Balai Sudirman,,-6.226949,106.84757,1,,0,2,,
B05686P,,Tebet Barat Dalam,,-6.239317,106.84535,1,,0,2,,
B05783P,,TPU Karet Bivak,,-6.201241,106.814,1,,0,2,,
B05784P,,TPU Kb. Nanas 1,,-6.23219,106.88051,1,,0,2,,
B05785P,,TPU Kb. Nanas 2,,-6.232106,106.88017,1,,0,2,,
B05796P,,Transjakarta Pintu 1,,-6.252682,106.87358,1,,0,2,,
B05798P,,Transjakarta Pool Klender,,-6.205191,106.90301,1,,0,2,,
B05799P,,Transjakarta Pool Rawa Buaya,,-6.159048,106.72692,1,,0,2,,
B05802P,,Transvision,,-6.240036,106.82842,1,,0,2,,
B05804P,,TTI Center,,-6.2862,106.8339,1,,0,2,,
B05805P,,TU Gas 1,,-6.192455,106.90507,1,,0,2,,
B05806P,,TU Gas 2,,-6.192206,106.90495,1,,0,2,,
B05812P,,Tugu Proklamasi,,-6.202606,106.847711,1,,0,2,,
B05813P,,Tugu Proklamasi 2,,-6.203214,106.845575,1,,0,2,,
B05814P,,Tugu Tani 1,,-6.181662,106.83288,1,,0,2,,
B05815P,,Tugu Tani 2,,-6.183129,106.83496,1,,0,2,,
B05816P,,TVRI,,-6.213698,106.80086,1,,0,2,,
B05818P,,UIA Kampus 2,,-6.261443,106.91072,1,,0,2,,
B05819P,,UKRIDA,,-6.172372,106.7887,1,,0,2,,
B05820P,,UMJ 1,,-6.296065,106.76544,1,,0,2,,
B05821P,,UMJ 2,,-6.295705,106.76554,1,,0,2,,
B05822P,,UNAS,,-6.280337,106.83891,1,,0,2,,
E00448,,Tosari Akses B,,-6.197631,106.82328,1,,2,1,H00251P,
B05824P,,Univ. Borobudur 1,,-6.24157,106.89641,1,,0,2,,
B05825P,,Univ. Borobudur 2,,-6.241463,106.89608,1,,0,2,,
B05826P,,Univ. Borobudur 3,,-6.243609,106.89906,1,,0,2,,
B05827P,,Univ. Borobudur 4,,-6.243707,106.89891,1,,0,2,,
B05829P,,Univ. Darma Persada,,-6.228712,106.92436,1,,0,2,,
B05830P,,Univ. Indonesia,,-6.353357,106.83186,1,,0,2,,
B05831P,,Univ. Islam As Syafiiah,,-6.26237,106.91073,1,,0,2,,
B05833P,,Univ. Moestopo Bintaro,,-6.258469,106.76529,1,,0,2,,
B05834P,,Univ. Pancasila,,-6.342183,106.83335,1,,0,2,,
B05836P,,Univ. Sahid 2,,-6.235598,106.84415,1,,0,2,,
B05837P,,Univ. Satya Negara,,-6.241863,106.78286,1,,0,2,,
B05838P,,Univ. Satyagama,,-6.143228,106.7295,1,,0,2,,
B05839P,,Univ. Tarumanegara,,-6.169759,106.78866,1,,0,2,,
B05840P,,Univ. Tarumanegara 2,,-6.169747,106.7877,1,,0,2,,
B05841P,,Univ. Tarumanegara Cilandak KKO,,-6.293511,106.81635,1,,0,2,,
B05843P,,Univ. Trisakti,,-6.168658,106.7885,1,,0,2,,
B05844P,,Univ. Trisakti 2,,-6.166868,106.79098,1,,0,2,,
B05846P,,UNKRIS,,-6.263734,106.91095,1,,0,2,,
B05849P,,Utan Panjang,,-6.169541,106.85209,1,,0,2,,
E00013,,Kebon Sirih Arah Selatan Akses A,,-6.184086,106.823236,1,,2,0,H00268S,
B05851P,,Velodrome 2,,-6.193324,106.88802,1,,0,2,,
B05854P,,Victoria Park 1,,-6.201633,106.62053,1,,0,2,,
B05855P,,Victoria Park 2,,-6.197681,106.62187,1,,0,2,,
B05858P,,Villa Bukit Gading,,-6.157028,106.89966,1,,0,2,,
B05861P,,Villa Kelapa Dua,,-6.216829,106.76684,1,,0,2,,
B05863P,,Waduk Pluit,,-6.11331,106.79483,1,,0,2,,
B05867P,,Wahidin 2,,-6.169193,106.83975,1,,0,2,,
B05853P,,Veteran,,-6.259892,106.76777,1,,0,2,,
B05781P,,TPU Bungur,,-6.247208,106.77889,1,,0,2,,
B05803P,,Transvision Jln. Tebet Raya,,-6.2295,106.84731,1,,0,2,,
B05835P,,Univ. Sahid 1,,-6.235851,106.84435,1,,0,2,,
B05870P,,Kantor Walikota Jakbar 2,,-6.184852,106.73705,1,,0,2,,
B05872P,,Kantor Walikota Jaksel,,-6.249147,106.80791,1,,0,2,,
B05873P,,Kantor Walikota Jakut 1,,-6.11906,106.89304,1,,0,2,,
B05874P,,Warga,,-6.273295,106.84656,1,,0,2,,
B05891P,,Wisma Mandiri 2,,-6.18333,106.82382,1,,0,2,,
B05876P,,Warung Mangga 1,,-6.225899,106.63778,1,,0,2,,
B05877P,,Warung Mangga 2,,-6.225732,106.63785,1,,0,2,,
B05878P,,Waterboom Jakarta 1,,-6.112974,106.74925,1,,0,2,,
B05879P,,Waterboom Jakarta 2,,-6.113197,106.74901,1,,0,2,,
B05881P,,Wijaya Kusuma,,-6.333008,106.83567,1,,0,2,,
B05885P,,Wisma Atlet Radin Inten,,-6.223513,106.92322,1,,0,2,,
B05886P,,Wisma BCA,,-6.295293,106.66633,1,,0,2,,
B05889P,,Wisma Laena Tebet,,-6.223586,106.85008,1,,0,2,,
B05890P,,Wisma Mandiri,,-6.18372,106.82322,1,,0,2,,
G00044,,Harmoni,,-6.162678,106.819897,1,,0,1,H00278P,D-E-F
B05892P,,Wisma Nusantara,,-6.193425,106.82319,1,,0,2,,
B05897P,,Wisma SMR,,-6.150176,106.88771,1,,0,2,,
B05898P,,Wisma Subud,,-6.28496,106.79596,1,,0,2,,
B05899P,,Wolter Monginsidi,,-6.238799,106.81376,1,,0,2,,
B05902P,,WTC Matahari 1,,-6.266812,106.65449,1,,0,2,,
B05903P,,WTC Matahari 2,,-6.266719,106.65469,1,,0,2,,
B05904P,,Yado I,,-6.253745,106.79098,1,,0,2,,
B05905P,,Yado III,,-6.255284,106.79037,1,,0,2,,
B05907P,,Yamaha Music School Kemang,,-6.262746,106.82369,1,,0,2,,
B05912P,,Yayasan Al Kholidin,,-6.246823,106.80566,1,,0,2,,
B05914P,,Yayasan Alkahfi Jakbar,,-6.198896,106.76889,1,,0,2,,
B05920P,,Yayasan Mambaul Ula,,-6.25935,106.8643,1,,0,2,,
G00045,,Harmoni,,-6.162598,106.819886,1,,0,1,H00278P,G-H-J
B05924P,,Yayasan Muhammadiyah 1,,-6.197045,106.81442,1,,0,2,,
B05925P,,Yayasan Muhammadiyah 2,,-6.196871,106.81431,1,,0,2,,
B05926P,,Yayasan Nurul Ihsan Pulo Gebang,,-6.215076,106.95527,1,,0,2,,
